[{"date": "2018-01-07 00:00:00", "centroid_lon": -111.77049137835499, "centroid_lat": 35.83874597791369, "state": "04_Arizona", "county": "005_Coconino", "type": "TCI", "mean": -1.0}, {"date": "2018-01-07 00:00:00", "centroid_lon": -109.88738874741334, "centroid_lat": 32.93269987499022, "state": "04_Arizona", "county": "009_Graham", "type": "TCI", "mean": -1.0}, {"date": "2018-01-07 00:00:00", "centroid_lon": -112.49129136326742, "centroid_lat": 33.34881594439976, "state": "04_Arizona", "county": "013_Maricopa", "type": "TCI", "mean": -1.0}, {"date": "2018-01-07 00:00:00", "centroid_lon": -110.81171010722144, "centroid_lat": 33.79975176644261, "state": "04_Arizona", "county": "007_Gila", "type": "TCI", "mean": -1.0}, {"date": "2018-01-07 00:00:00", "centroid_lon": -109.48882230843974, "centroid_lat": 35.39552646734952, "state": "04_Arizona", "county": "001_Apache", "type": "TCI", "mean": -1.0}, {"date": "2018-01-07 00:00:00", "centroid_lon": -109.24012820437052, "centroid_lat": 33.21523492222132, "state": "04_Arizona", "county": "011_Greenlee", "type": "TCI", "mean": -1.0}, {"date": "2018-01-07 00:00:00", "centroid_lon": -110.84658768144409, "centroid_lat": 31.52602521307126, "state": "04_Arizona", "county": "023_Santa Cruz", "type": "TCI", "mean": -1.0}, {"date": "2018-01-07 00:00:00", "centroid_lon": -111.3446707819572, "centroid_lat": 32.90439176331557, "state": "04_Arizona", "county": "021_Pinal", "type": "TCI", "mean": -1.0}, {"date": "2018-01-07 00:00:00", "centroid_lon": -109.75116766140667, "centroid_lat": 31.879608041942266, "state": "04_Arizona", "county": "003_Cochise", "type": "TCI", "mean": -1.0}, {"date": "2018-01-07 00:00:00", "centroid_lon": -110.32140142426306, "centroid_lat": 35.399657440244596, "state": "04_Arizona", "county": "017_Navajo", "type": "TCI", "mean": -1.0}, {"date": "2018-01-07 00:00:00", "centroid_lon": -113.75795269664276, "centroid_lat": 35.704095159106245, "state": "04_Arizona", "county": "015_Mohave", "type": "TCI", "mean": -1.0}, {"date": "2018-01-07 00:00:00", "centroid_lon": -111.78990488515122, "centroid_lat": 32.097427295651826, "state": "04_Arizona", "county": "019_Pima", "type": "TCI", "mean": -1.0}, {"date": "2018-01-07 00:00:00", "centroid_lon": -112.55390468776021, "centroid_lat": 34.59990365784671, "state": "04_Arizona", "county": "025_Yavapai", "type": "TCI", "mean": -1.0}, {"date": "2018-01-07 00:00:00", "centroid_lon": -113.90555557704819, "centroid_lat": 32.76937662032426, "state": "04_Arizona", "county": "027_Yuma", "type": "TCI", "mean": -1.0}, {"date": "2018-01-07 00:00:00", "centroid_lon": -113.98132415701487, "centroid_lat": 33.72924371659175, "state": "04_Arizona", "county": "012_La Paz", "type": "TCI", "mean": -1.0}]