[{"date": "2018-01-07 00:00:00", "centroid_lon": -87.07204460457892, "centroid_lat": 38.70240607387264, "state": "18_Indiana", "county": "027_Daviess", "type": "TCI", "mean": -1.0}, {"date": "2018-01-07 00:00:00", "centroid_lon": -86.11130682918804, "centroid_lat": 38.19517152505245, "state": "18_Indiana", "county": "061_Harrison", "type": "TCI", "mean": -1.0}, {"date": "2018-01-07 00:00:00", "centroid_lon": -86.04504973375286, "centroid_lat": 40.769456371656574, "state": "18_Indiana", "county": "103_Miami", "type": "TCI", "mean": -1.0}, {"date": "2018-01-07 00:00:00", "centroid_lon": -87.86845961108338, "centroid_lat": 38.021817931725465, "state": "18_Indiana", "county": "129_Posey", "type": "TCI", "mean": -1.0}, {"date": "2018-01-07 00:00:00", "centroid_lon": -87.00766950958706, "centroid_lat": 38.01409639597303, "state": "18_Indiana", "county": "147_Spencer", "type": "TCI", "mean": -1.0}, {"date": "2018-01-07 00:00:00", "centroid_lon": -85.32482248007162, "centroid_lat": 40.473636822293535, "state": "18_Indiana", "county": "009_Blackford", "type": "TCI", "mean": -1.0}, {"date": "2018-01-07 00:00:00", "centroid_lon": -85.3968998358106, "centroid_lat": 40.22754556356436, "state": "18_Indiana", "county": "035_Delaware", "type": "TCI", "mean": -1.0}, {"date": "2018-01-07 00:00:00", "centroid_lon": -86.11695938607949, "centroid_lat": 40.483607532273204, "state": "18_Indiana", "county": "067_Howard", "type": "TCI", "mean": -1.0}, {"date": "2018-01-07 00:00:00", "centroid_lon": -87.41802467400436, "centroid_lat": 38.68906994225328, "state": "18_Indiana", "county": "083_Knox", "type": "TCI", "mean": -1.0}, {"date": "2018-01-07 00:00:00", "centroid_lon": -86.05185146852709, "centroid_lat": 40.31134431513605, "state": "18_Indiana", "county": "159_Tipton", "type": "TCI", "mean": -1.0}, {"date": "2018-01-07 00:00:00", "centroid_lon": -86.10530521704995, "centroid_lat": 38.599997995893645, "state": "18_Indiana", "county": "175_Washington", "type": "TCI", "mean": -1.0}, {"date": "2018-01-07 00:00:00", "centroid_lon": -86.03753972835925, "centroid_lat": 38.906416400985314, "state": "18_Indiana", "county": "071_Jackson", "type": "TCI", "mean": -1.0}, {"date": "2018-01-07 00:00:00", "centroid_lon": -85.22119400261005, "centroid_lat": 40.72918907332118, "state": "18_Indiana", "county": "179_Wells", "type": "TCI", "mean": -1.0}, {"date": "2018-01-07 00:00:00", "centroid_lon": -87.31093166056296, "centroid_lat": 40.60625371339157, "state": "18_Indiana", "county": "007_Benton", "type": "TCI", "mean": -1.0}, {"date": "2018-01-07 00:00:00", "centroid_lon": -87.58461346877569, "centroid_lat": 38.31185418110546, "state": "18_Indiana", "county": "051_Gibson", "type": "TCI", "mean": -1.0}, {"date": "2018-01-07 00:00:00", "centroid_lon": -86.63802268360236, "centroid_lat": 38.079652854178164, "state": "18_Indiana", "county": "123_Perry", "type": "TCI", "mean": -1.0}, {"date": "2018-01-07 00:00:00", "centroid_lon": -87.11576459254661, "centroid_lat": 39.392795428829814, "state": "18_Indiana", "county": "021_Clay", "type": "TCI", "mean": -1.0}, {"date": "2018-01-07 00:00:00", "centroid_lon": -87.23216276062635, "centroid_lat": 38.39878003300403, "state": "18_Indiana", "county": "125_Pike", "type": "TCI", "mean": -1.0}, {"date": "2018-01-07 00:00:00", "centroid_lon": -85.65471601021069, "centroid_lat": 40.515800082935584, "state": "18_Indiana", "county": "053_Grant", "type": "TCI", "mean": -1.0}, {"date": "2018-01-07 00:00:00", "centroid_lon": -86.2617572674993, "centroid_lat": 41.32484016767492, "state": "18_Indiana", "county": "099_Marshall", "type": "TCI", "mean": -1.0}, {"date": "2018-01-07 00:00:00", "centroid_lon": -86.803073371407, "centroid_lat": 38.70801365526135, "state": "18_Indiana", "county": "101_Martin", "type": "TCI", "mean": -1.0}, {"date": "2018-01-07 00:00:00", "centroid_lon": -85.06657404141414, "centroid_lat": 41.09088453099659, "state": "18_Indiana", "county": "003_Allen", "type": "TCI", "mean": -1.0}, {"date": "2018-01-07 00:00:00", "centroid_lon": -85.50110907630227, "centroid_lat": 39.307001474391235, "state": "18_Indiana", "county": "031_Decatur", "type": "TCI", "mean": -1.0}, {"date": "2018-01-07 00:00:00", "centroid_lon": -86.8798114267644, "centroid_lat": 38.364273036496414, "state": "18_Indiana", "county": "037_Dubois", "type": "TCI", "mean": -1.0}, {"date": "2018-01-07 00:00:00", "centroid_lon": -85.1787638840913, "centroid_lat": 39.64002907719431, "state": "18_Indiana", "county": "041_Fayette", "type": "TCI", "mean": -1.0}, {"date": "2018-01-07 00:00:00", "centroid_lon": -86.96204482196732, "centroid_lat": 39.03634430785284, "state": "18_Indiana", "county": "055_Greene", "type": "TCI", "mean": -1.0}, {"date": "2018-01-07 00:00:00", "centroid_lon": -85.39642519959395, "centroid_lat": 39.931063198304706, "state": "18_Indiana", "county": "065_Henry", "type": "TCI", "mean": -1.0}, {"date": "2018-01-07 00:00:00", "centroid_lon": -85.00570481094739, "centroid_lat": 40.43795740161875, "state": "18_Indiana", "county": "075_Jay", "type": "TCI", "mean": -1.0}, {"date": "2018-01-07 00:00:00", "centroid_lon": -85.86071564344059, "centroid_lat": 41.244071507325444, "state": "18_Indiana", "county": "085_Kosciusko", "type": "TCI", "mean": -1.0}, {"date": "2018-01-07 00:00:00", "centroid_lon": -86.73996089293482, "centroid_lat": 41.5459875384831, "state": "18_Indiana", "county": "091_LaPorte", "type": "TCI", "mean": -1.0}, {"date": "2018-01-07 00:00:00", "centroid_lon": -86.44623079230767, "centroid_lat": 39.481569626805204, "state": "18_Indiana", "county": "109_Morgan", "type": "TCI", "mean": -1.0}, {"date": "2018-01-07 00:00:00", "centroid_lon": -86.86548809081874, "centroid_lat": 40.749759855441376, "state": "18_Indiana", "county": "181_White", "type": "TCI", "mean": -1.0}, {"date": "2018-01-07 00:00:00", "centroid_lon": -85.71935636349004, "centroid_lat": 40.16161041231556, "state": "18_Indiana", "county": "095_Madison", "type": "TCI", "mean": -1.0}, {"date": "2018-01-07 00:00:00", "centroid_lon": -86.13847027273167, "centroid_lat": 39.78171119361727, "state": "18_Indiana", "county": "097_Marion", "type": "TCI", "mean": -1.0}, {"date": "2018-01-07 00:00:00", "centroid_lon": -86.34598335434868, "centroid_lat": 40.76153986764886, "state": "18_Indiana", "county": "017_Cass", "type": "TCI", "mean": -1.0}, {"date": "2018-01-07 00:00:00", "centroid_lon": -84.9650911161703, "centroid_lat": 38.95007879092129, "state": "18_Indiana", "county": "115_Ohio", "type": "TCI", "mean": -1.0}, {"date": "2018-01-07 00:00:00", "centroid_lon": -86.83767051132988, "centroid_lat": 39.312804899458456, "state": "18_Indiana", "county": "119_Owen", "type": "TCI", "mean": -1.0}, {"date": "2018-01-07 00:00:00", "centroid_lon": -87.20637911496486, "centroid_lat": 39.7736346406986, "state": "18_Indiana", "county": "121_Parke", "type": "TCI", "mean": -1.0}, {"date": "2018-01-07 00:00:00", "centroid_lon": -86.84499599236105, "centroid_lat": 39.666280782716505, "state": "18_Indiana", "county": "133_Putnam", "type": "TCI", "mean": -1.0}, {"date": "2018-01-07 00:00:00", "centroid_lon": -86.89405932795188, "centroid_lat": 40.38861981090347, "state": "18_Indiana", "county": "157_Tippecanoe", "type": "TCI", "mean": -1.0}, {"date": "2018-01-07 00:00:00", "centroid_lon": -87.39757007530145, "centroid_lat": 40.95583812396975, "state": "18_Indiana", "county": "111_Newton", "type": "TCI", "mean": -1.0}, {"date": "2018-01-07 00:00:00", "centroid_lon": -85.74748028616824, "centroid_lat": 38.685074218983225, "state": "18_Indiana", "county": "143_Scott", "type": "TCI", "mean": -1.0}, {"date": "2018-01-07 00:00:00", "centroid_lon": -87.35330188803933, "centroid_lat": 40.34693718184913, "state": "18_Indiana", "county": "171_Warren", "type": "TCI", "mean": -1.0}, {"date": "2018-01-07 00:00:00", "centroid_lon": -85.00983824347368, "centroid_lat": 39.864382355355886, "state": "18_Indiana", "county": "177_Wayne", "type": "TCI", "mean": -1.0}, {"date": "2018-01-07 00:00:00", "centroid_lon": -85.77325851837483, "centroid_lat": 39.82355246329078, "state": "18_Indiana", "county": "059_Hancock", "type": "TCI", "mean": -1.0}, {"date": "2018-01-07 00:00:00", "centroid_lon": -87.27208736549622, "centroid_lat": 38.09217364959564, "state": "18_Indiana", "county": "173_Warrick", "type": "TCI", "mean": -1.0}, {"date": "2018-01-07 00:00:00", "centroid_lon": -85.48813053437357, "centroid_lat": 40.82921962480345, "state": "18_Indiana", "county": "069_Huntington", "type": "TCI", "mean": -1.0}, {"date": "2018-01-07 00:00:00", "centroid_lon": -87.11611834012518, "centroid_lat": 41.02298757177247, "state": "18_Indiana", "county": "073_Jasper", "type": "TCI", "mean": -1.0}, {"date": "2018-01-07 00:00:00", "centroid_lon": -84.97324273786917, "centroid_lat": 39.14517193438367, "state": "18_Indiana", "county": "029_Dearborn", "type": "TCI", "mean": -1.0}, {"date": "2018-01-07 00:00:00", "centroid_lon": -86.69879738685349, "centroid_lat": 41.041853677475316, "state": "18_Indiana", "county": "131_Pulaski", "type": "TCI", "mean": -1.0}, {"date": "2018-01-07 00:00:00", "centroid_lon": -85.46576014729358, "centroid_lat": 39.6199698108835, "state": "18_Indiana", "county": "139_Rush", "type": "TCI", "mean": -1.0}, {"date": "2018-01-07 00:00:00", "centroid_lon": -86.52312652398109, "centroid_lat": 39.16091027218402, "state": "18_Indiana", "county": "105_Monroe", "type": "TCI", "mean": -1.0}, {"date": "2018-01-07 00:00:00", "centroid_lon": -86.49506132380634, "centroid_lat": 38.54179057221896, "state": "18_Indiana", "county": "117_Orange", "type": "TCI", "mean": -1.0}, {"date": "2018-01-07 00:00:00", "centroid_lon": -85.26236518015435, "centroid_lat": 39.10347556529025, "state": "18_Indiana", "county": "137_Ripley", "type": "TCI", "mean": -1.0}, {"date": "2018-01-07 00:00:00", "centroid_lon": -85.90681259382418, "centroid_lat": 38.3189311370458, "state": "18_Indiana", "county": "043_Floyd", "type": "TCI", "mean": -1.0}, {"date": "2018-01-07 00:00:00", "centroid_lon": -86.28985054577109, "centroid_lat": 41.616654735907204, "state": "18_Indiana", "county": "141_St. Joseph", "type": "TCI", "mean": -1.0}, {"date": "2018-01-07 00:00:00", "centroid_lon": -86.6476276335961, "centroid_lat": 41.28093741356949, "state": "18_Indiana", "county": "149_Starke", "type": "TCI", "mean": -1.0}, {"date": "2018-01-07 00:00:00", "centroid_lon": -85.89759073009336, "centroid_lat": 39.20595128349801, "state": "18_Indiana", "county": "005_Bartholomew", "type": "TCI", "mean": -1.0}, {"date": "2018-01-07 00:00:00", "centroid_lon": -86.56349721619387, "centroid_lat": 40.58284720763116, "state": "18_Indiana", "county": "015_Carroll", "type": "TCI", "mean": -1.0}, {"date": "2018-01-07 00:00:00", "centroid_lon": -87.58581620626454, "centroid_lat": 38.02496059839474, "state": "18_Indiana", "county": "163_Vanderburgh", "type": "TCI", "mean": -1.0}, {"date": "2018-01-07 00:00:00", "centroid_lon": -87.4639821172066, "centroid_lat": 39.85382699106403, "state": "18_Indiana", "county": "165_Vermillion", "type": "TCI", "mean": -1.0}, {"date": "2018-01-07 00:00:00", "centroid_lon": -85.79399878786936, "centroid_lat": 40.84564369759898, "state": "18_Indiana", "county": "169_Wabash", "type": "TCI", "mean": -1.0}, {"date": "2018-01-07 00:00:00", "centroid_lon": -84.93661597905894, "centroid_lat": 40.74565523116365, "state": "18_Indiana", "county": "001_Adams", "type": "TCI", "mean": -1.0}, {"date": "2018-01-07 00:00:00", "centroid_lon": -85.62803435540029, "centroid_lat": 38.99692329755798, "state": "18_Indiana", "county": "079_Jennings", "type": "TCI", "mean": -1.0}, {"date": "2018-01-07 00:00:00", "centroid_lon": -86.48345736328, "centroid_lat": 38.84116042551732, "state": "18_Indiana", "county": "093_Lawrence", "type": "TCI", "mean": -1.0}, {"date": "2018-01-07 00:00:00", "centroid_lon": -85.03700185185554, "centroid_lat": 38.82619748042334, "state": "18_Indiana", "county": "155_Switzerland", "type": "TCI", "mean": -1.0}, {"date": "2018-01-07 00:00:00", "centroid_lon": -87.38221505948651, "centroid_lat": 41.41713854420432, "state": "18_Indiana", "county": "089_Lake", "type": "TCI", "mean": -1.0}, {"date": "2018-01-07 00:00:00", "centroid_lon": -86.89329763926182, "centroid_lat": 40.040397335673404, "state": "18_Indiana", "county": "107_Montgomery", "type": "TCI", "mean": -1.0}, {"date": "2018-01-07 00:00:00", "centroid_lon": -84.92513791015588, "centroid_lat": 39.625594785194465, "state": "18_Indiana", "county": "161_Union", "type": "TCI", "mean": -1.0}, {"date": "2018-01-07 00:00:00", "centroid_lon": -85.06014333272965, "centroid_lat": 39.414868478903266, "state": "18_Indiana", "county": "047_Franklin", "type": "TCI", "mean": -1.0}, {"date": "2018-01-07 00:00:00", "centroid_lon": -86.2635370243981, "centroid_lat": 41.046977624865654, "state": "18_Indiana", "county": "049_Fulton", "type": "TCI", "mean": -1.0}, {"date": "2018-01-07 00:00:00", "centroid_lon": -86.05202734084591, "centroid_lat": 40.07247954946458, "state": "18_Indiana", "county": "057_Hamilton", "type": "TCI", "mean": -1.0}, {"date": "2018-01-07 00:00:00", "centroid_lon": -85.43855043504234, "centroid_lat": 38.78578871740537, "state": "18_Indiana", "county": "077_Jefferson", "type": "TCI", "mean": -1.0}, {"date": "2018-01-07 00:00:00", "centroid_lon": -87.06725879780342, "centroid_lat": 41.46054623322724, "state": "18_Indiana", "county": "127_Porter", "type": "TCI", "mean": -1.0}, {"date": "2018-01-07 00:00:00", "centroid_lon": -85.70729854416517, "centroid_lat": 38.477177590942425, "state": "18_Indiana", "county": "019_Clark", "type": "TCI", "mean": -1.0}, {"date": "2018-01-07 00:00:00", "centroid_lon": -84.99905942488384, "centroid_lat": 41.39757021471445, "state": "18_Indiana", "county": "033_DeKalb", "type": "TCI", "mean": -1.0}, {"date": "2018-01-07 00:00:00", "centroid_lon": -85.85873470418167, "centroid_lat": 41.59739348654996, "state": "18_Indiana", "county": "039_Elkhart", "type": "TCI", "mean": -1.0}, {"date": "2018-01-07 00:00:00", "centroid_lon": -87.24197108216227, "centroid_lat": 40.120898390231865, "state": "18_Indiana", "county": "045_Fountain", "type": "TCI", "mean": -1.0}, {"date": "2018-01-07 00:00:00", "centroid_lon": -86.46870625463869, "centroid_lat": 40.05079933933478, "state": "18_Indiana", "county": "011_Boone", "type": "TCI", "mean": -1.0}, {"date": "2018-01-07 00:00:00", "centroid_lon": -86.47514275048586, "centroid_lat": 40.30169517995555, "state": "18_Indiana", "county": "023_Clinton", "type": "TCI", "mean": -1.0}, {"date": "2018-01-07 00:00:00", "centroid_lon": -86.50997023079222, "centroid_lat": 39.76951990450323, "state": "18_Indiana", "county": "063_Hendricks", "type": "TCI", "mean": -1.0}, {"date": "2018-01-07 00:00:00", "centroid_lon": -85.79166262943131, "centroid_lat": 39.52371530649532, "state": "18_Indiana", "county": "145_Shelby", "type": "TCI", "mean": -1.0}, {"date": "2018-01-07 00:00:00", "centroid_lon": -85.0114427391063, "centroid_lat": 40.1575877429863, "state": "18_Indiana", "county": "135_Randolph", "type": "TCI", "mean": -1.0}, {"date": "2018-01-07 00:00:00", "centroid_lon": -87.41471967132534, "centroid_lat": 39.08884212786489, "state": "18_Indiana", "county": "153_Sullivan", "type": "TCI", "mean": -1.0}, {"date": "2018-01-07 00:00:00", "centroid_lon": -85.50512035141433, "centroid_lat": 41.13938040548212, "state": "18_Indiana", "county": "183_Whitley", "type": "TCI", "mean": -1.0}, {"date": "2018-01-07 00:00:00", "centroid_lon": -87.38997396415559, "centroid_lat": 39.43063557911217, "state": "18_Indiana", "county": "167_Vigo", "type": "TCI", "mean": -1.0}, {"date": "2018-01-07 00:00:00", "centroid_lon": -86.45172410530243, "centroid_lat": 38.2923815681455, "state": "18_Indiana", "county": "025_Crawford", "type": "TCI", "mean": -1.0}, {"date": "2018-01-07 00:00:00", "centroid_lon": -86.10159622311731, "centroid_lat": 39.489962242061175, "state": "18_Indiana", "county": "081_Johnson", "type": "TCI", "mean": -1.0}, {"date": "2018-01-07 00:00:00", "centroid_lon": -86.2273767800637, "centroid_lat": 39.19623153578475, "state": "18_Indiana", "county": "013_Brown", "type": "TCI", "mean": -1.0}, {"date": "2018-01-07 00:00:00", "centroid_lon": -85.42649136538259, "centroid_lat": 41.64262145134993, "state": "18_Indiana", "county": "087_LaGrange", "type": "TCI", "mean": -1.0}, {"date": "2018-01-07 00:00:00", "centroid_lon": -85.41749644845038, "centroid_lat": 41.3986028366377, "state": "18_Indiana", "county": "113_Noble", "type": "TCI", "mean": -1.0}, {"date": "2018-01-07 00:00:00", "centroid_lon": -85.00085915878144, "centroid_lat": 41.643891927075984, "state": "18_Indiana", "county": "151_Steuben", "type": "TCI", "mean": -1.0}]