[{"date": "2018-01-07 00:00:00", "centroid_lon": -88.99925588833919, "centroid_lat": 37.05848196169255, "state": "21_Kentucky", "county": "007_Ballard", "type": "TCI", "mean": -1.0}, {"date": "2018-01-07 00:00:00", "centroid_lon": -84.21715057392247, "centroid_lat": 38.20673452494958, "state": "21_Kentucky", "county": "017_Bourbon", "type": "TCI", "mean": -1.0}, {"date": "2018-01-07 00:00:00", "centroid_lon": -86.68162334315126, "centroid_lat": 37.207284503217736, "state": "21_Kentucky", "county": "031_Butler", "type": "TCI", "mean": -1.0}, {"date": "2018-01-07 00:00:00", "centroid_lon": -83.9643112140223, "centroid_lat": 37.69244422727433, "state": "21_Kentucky", "county": "065_Estill", "type": "TCI", "mean": -1.0}, {"date": "2018-01-07 00:00:00", "centroid_lon": -83.6966560109386, "centroid_lat": 38.370118181282606, "state": "21_Kentucky", "county": "069_Fleming", "type": "TCI", "mean": -1.0}, {"date": "2018-01-07 00:00:00", "centroid_lon": -85.96344816564542, "centroid_lat": 37.697923748277894, "state": "21_Kentucky", "county": "093_Hardin", "type": "TCI", "mean": -1.0}, {"date": "2018-01-07 00:00:00", "centroid_lon": -85.88469125715008, "centroid_lat": 37.299930032136444, "state": "21_Kentucky", "county": "099_Hart", "type": "TCI", "mean": -1.0}, {"date": "2018-01-07 00:00:00", "centroid_lon": -83.38112755085908, "centroid_lat": 37.094068619347205, "state": "21_Kentucky", "county": "131_Leslie", "type": "TCI", "mean": -1.0}, {"date": "2018-01-07 00:00:00", "centroid_lon": -84.2780042267977, "centroid_lat": 37.720182524752786, "state": "21_Kentucky", "county": "151_Madison", "type": "TCI", "mean": -1.0}, {"date": "2018-01-07 00:00:00", "centroid_lon": -85.26963609723018, "centroid_lat": 37.552536011601205, "state": "21_Kentucky", "county": "155_Marion", "type": "TCI", "mean": -1.0}, {"date": "2018-01-07 00:00:00", "centroid_lon": -85.46595801652106, "centroid_lat": 37.8051540047838, "state": "21_Kentucky", "county": "179_Nelson", "type": "TCI", "mean": -1.0}, {"date": "2018-01-07 00:00:00", "centroid_lon": -83.68309732468299, "centroid_lat": 37.41919963893863, "state": "21_Kentucky", "county": "189_Owsley", "type": "TCI", "mean": -1.0}, {"date": "2018-01-07 00:00:00", "centroid_lon": -82.39582318912703, "centroid_lat": 37.469070400061604, "state": "21_Kentucky", "county": "195_Pike", "type": "TCI", "mean": -1.0}, {"date": "2018-01-07 00:00:00", "centroid_lon": -85.32792647312925, "centroid_lat": 37.36646569645787, "state": "21_Kentucky", "county": "217_Taylor", "type": "TCI", "mean": -1.0}, {"date": "2018-01-07 00:00:00", "centroid_lon": -83.49316615527583, "centroid_lat": 37.739319225008494, "state": "21_Kentucky", "county": "237_Wolfe", "type": "TCI", "mean": -1.0}, {"date": "2018-01-07 00:00:00", "centroid_lon": -84.74360193801229, "centroid_lat": 38.042386508717485, "state": "21_Kentucky", "county": "239_Woodford", "type": "TCI", "mean": -1.0}, {"date": "2018-01-07 00:00:00", "centroid_lon": -85.17476536695054, "centroid_lat": 37.753380142784, "state": "21_Kentucky", "county": "229_Washington", "type": "TCI", "mean": -1.0}, {"date": "2018-01-07 00:00:00", "centroid_lon": -84.82862312595404, "centroid_lat": 36.80127910050608, "state": "21_Kentucky", "county": "231_Wayne", "type": "TCI", "mean": -1.0}, {"date": "2018-01-07 00:00:00", "centroid_lon": -84.99099658225087, "centroid_lat": 38.00392064963656, "state": "21_Kentucky", "county": "005_Anderson", "type": "TCI", "mean": -1.0}, {"date": "2018-01-07 00:00:00", "centroid_lon": -83.32406324598594, "centroid_lat": 37.521615669899845, "state": "21_Kentucky", "county": "025_Breathitt", "type": "TCI", "mean": -1.0}, {"date": "2018-01-07 00:00:00", "centroid_lon": -85.69586025760073, "centroid_lat": 37.97007363413737, "state": "21_Kentucky", "county": "029_Bullitt", "type": "TCI", "mean": -1.0}, {"date": "2018-01-07 00:00:00", "centroid_lon": -87.86786378165155, "centroid_lat": 37.145407145542826, "state": "21_Kentucky", "county": "033_Caldwell", "type": "TCI", "mean": -1.0}, {"date": "2018-01-07 00:00:00", "centroid_lon": -83.04953874590528, "centroid_lat": 38.318185588302626, "state": "21_Kentucky", "county": "043_Carter", "type": "TCI", "mean": -1.0}, {"date": "2018-01-07 00:00:00", "centroid_lon": -84.1474162224465, "centroid_lat": 37.970821370062694, "state": "21_Kentucky", "county": "049_Clark", "type": "TCI", "mean": -1.0}, {"date": "2018-01-07 00:00:00", "centroid_lon": -83.09761513720922, "centroid_lat": 38.11790057023989, "state": "21_Kentucky", "county": "063_Elliott", "type": "TCI", "mean": -1.0}, {"date": "2018-01-07 00:00:00", "centroid_lon": -82.74570556885939, "centroid_lat": 37.55711904966176, "state": "21_Kentucky", "county": "071_Floyd", "type": "TCI", "mean": -1.0}, {"date": "2018-01-07 00:00:00", "centroid_lon": -86.34391607694558, "centroid_lat": 37.46081386395805, "state": "21_Kentucky", "county": "085_Grayson", "type": "TCI", "mean": -1.0}, {"date": "2018-01-07 00:00:00", "centroid_lon": -84.33136381686448, "centroid_lat": 38.441815200140056, "state": "21_Kentucky", "county": "097_Harrison", "type": "TCI", "mean": -1.0}, {"date": "2018-01-07 00:00:00", "centroid_lon": -84.00575272402423, "centroid_lat": 37.419765881306844, "state": "21_Kentucky", "county": "109_Jackson", "type": "TCI", "mean": -1.0}, {"date": "2018-01-07 00:00:00", "centroid_lon": -82.95414136562373, "centroid_lat": 37.354047193610484, "state": "21_Kentucky", "county": "119_Knott", "type": "TCI", "mean": -1.0}, {"date": "2018-01-07 00:00:00", "centroid_lon": -84.11780203009799, "centroid_lat": 37.11067362019021, "state": "21_Kentucky", "county": "125_Laurel", "type": "TCI", "mean": -1.0}, {"date": "2018-01-07 00:00:00", "centroid_lon": -83.37806849941545, "centroid_lat": 38.53158279651725, "state": "21_Kentucky", "county": "135_Lewis", "type": "TCI", "mean": -1.0}, {"date": "2018-01-07 00:00:00", "centroid_lon": -88.35372060298633, "centroid_lat": 37.20962301819126, "state": "21_Kentucky", "county": "139_Livingston", "type": "TCI", "mean": -1.0}, {"date": "2018-01-07 00:00:00", "centroid_lon": -83.0649197091195, "centroid_lat": 37.706468793711394, "state": "21_Kentucky", "county": "153_Magoffin", "type": "TCI", "mean": -1.0}, {"date": "2018-01-07 00:00:00", "centroid_lon": -82.51323011079772, "centroid_lat": 37.80157694007717, "state": "21_Kentucky", "county": "159_Martin", "type": "TCI", "mean": -1.0}, {"date": "2018-01-07 00:00:00", "centroid_lon": -84.8744567482865, "centroid_lat": 37.81104052708324, "state": "21_Kentucky", "county": "167_Mercer", "type": "TCI", "mean": -1.0}, {"date": "2018-01-07 00:00:00", "centroid_lon": -84.01530138328643, "centroid_lat": 38.335553680422365, "state": "21_Kentucky", "county": "181_Nicholas", "type": "TCI", "mean": -1.0}, {"date": "2018-01-07 00:00:00", "centroid_lon": -86.84887834685638, "centroid_lat": 37.478195772441005, "state": "21_Kentucky", "county": "183_Ohio", "type": "TCI", "mean": -1.0}, {"date": "2018-01-07 00:00:00", "centroid_lon": -83.2214707747675, "centroid_lat": 37.24429917420997, "state": "21_Kentucky", "county": "193_Perry", "type": "TCI", "mean": -1.0}, {"date": "2018-01-07 00:00:00", "centroid_lon": -83.8237337223133, "centroid_lat": 37.83112677738935, "state": "21_Kentucky", "county": "197_Powell", "type": "TCI", "mean": -1.0}, {"date": "2018-01-07 00:00:00", "centroid_lon": -83.42110798460499, "centroid_lat": 38.196255400842254, "state": "21_Kentucky", "county": "205_Rowan", "type": "TCI", "mean": -1.0}, {"date": "2018-01-07 00:00:00", "centroid_lon": -86.19041518742976, "centroid_lat": 36.75125145291907, "state": "21_Kentucky", "county": "003_Allen", "type": "TCI", "mean": -1.0}, {"date": "2018-01-07 00:00:00", "centroid_lon": -83.71464308746395, "centroid_lat": 37.15969563738583, "state": "21_Kentucky", "county": "051_Clay", "type": "TCI", "mean": -1.0}, {"date": "2018-01-07 00:00:00", "centroid_lon": -83.59886644921966, "centroid_lat": 37.94138815475973, "state": "21_Kentucky", "county": "165_Menifee", "type": "TCI", "mean": -1.0}, {"date": "2018-01-07 00:00:00", "centroid_lon": -88.09719712944552, "centroid_lat": 37.35272341005476, "state": "21_Kentucky", "county": "055_Crittenden", "type": "TCI", "mean": -1.0}, {"date": "2018-01-07 00:00:00", "centroid_lon": -86.429337499037, "centroid_lat": 37.773389379967945, "state": "21_Kentucky", "county": "027_Breckinridge", "type": "TCI", "mean": -1.0}, {"date": "2018-01-07 00:00:00", "centroid_lon": -84.48422152862756, "centroid_lat": 36.737120696708885, "state": "21_Kentucky", "county": "147_McCreary", "type": "TCI", "mean": -1.0}, {"date": "2018-01-07 00:00:00", "centroid_lon": -83.25888588773336, "centroid_lat": 37.92228294311424, "state": "21_Kentucky", "county": "175_Morgan", "type": "TCI", "mean": -1.0}, {"date": "2018-01-07 00:00:00", "centroid_lon": -84.53766513880798, "centroid_lat": 37.63959984067754, "state": "21_Kentucky", "county": "079_Garrard", "type": "TCI", "mean": -1.0}, {"date": "2018-01-07 00:00:00", "centroid_lon": -85.69792829735574, "centroid_lat": 37.545793463540114, "state": "21_Kentucky", "county": "123_Larue", "type": "TCI", "mean": -1.0}, {"date": "2018-01-07 00:00:00", "centroid_lon": -84.58392156831384, "centroid_lat": 38.29154577693894, "state": "21_Kentucky", "county": "209_Scott", "type": "TCI", "mean": -1.0}, {"date": "2018-01-07 00:00:00", "centroid_lon": -84.14517967451198, "centroid_lat": 36.75809682033121, "state": "21_Kentucky", "county": "235_Whitley", "type": "TCI", "mean": -1.0}, {"date": "2018-01-07 00:00:00", "centroid_lon": -84.31600989437104, "centroid_lat": 37.36505827030144, "state": "21_Kentucky", "county": "203_Rockcastle", "type": "TCI", "mean": -1.0}, {"date": "2018-01-07 00:00:00", "centroid_lon": -83.7426765749541, "centroid_lat": 38.14495216630586, "state": "21_Kentucky", "county": "011_Bath", "type": "TCI", "mean": -1.0}, {"date": "2018-01-07 00:00:00", "centroid_lon": -84.45871291502455, "centroid_lat": 38.04231919033207, "state": "21_Kentucky", "county": "067_Fayette", "type": "TCI", "mean": -1.0}, {"date": "2018-01-07 00:00:00", "centroid_lon": -87.57303115489076, "centroid_lat": 37.795803945828, "state": "21_Kentucky", "county": "101_Henderson", "type": "TCI", "mean": -1.0}, {"date": "2018-01-07 00:00:00", "centroid_lon": -82.85531290041087, "centroid_lat": 37.12117501063005, "state": "21_Kentucky", "county": "133_Letcher", "type": "TCI", "mean": -1.0}, {"date": "2018-01-07 00:00:00", "centroid_lon": -82.92234465358842, "centroid_lat": 38.545692923388145, "state": "21_Kentucky", "county": "089_Greenup", "type": "TCI", "mean": -1.0}, {"date": "2018-01-07 00:00:00", "centroid_lon": -84.82810333892297, "centroid_lat": 38.519649526265546, "state": "21_Kentucky", "county": "187_Owen", "type": "TCI", "mean": -1.0}, {"date": "2018-01-07 00:00:00", "centroid_lon": -89.18736232078574, "centroid_lat": 36.55404202803442, "state": "21_Kentucky", "county": "075_Fulton", "type": "TCI", "mean": -1.0}, {"date": "2018-01-07 00:00:00", "centroid_lon": -88.65120022075078, "centroid_lat": 36.72310321811677, "state": "21_Kentucky", "county": "083_Graves", "type": "TCI", "mean": -1.0}, {"date": "2018-01-07 00:00:00", "centroid_lon": -84.928321201599, "centroid_lat": 37.32232537008902, "state": "21_Kentucky", "county": "045_Casey", "type": "TCI", "mean": -1.0}, {"date": "2018-01-07 00:00:00", "centroid_lon": -84.58095197831823, "centroid_lat": 37.87207147911717, "state": "21_Kentucky", "county": "113_Jessamine", "type": "TCI", "mean": -1.0}, {"date": "2018-01-07 00:00:00", "centroid_lon": -86.87891916564878, "centroid_lat": 36.859685255011875, "state": "21_Kentucky", "county": "141_Logan", "type": "TCI", "mean": -1.0}, {"date": "2018-01-07 00:00:00", "centroid_lon": -84.0520318921538, "centroid_lat": 38.51880890414237, "state": "21_Kentucky", "county": "201_Robertson", "type": "TCI", "mean": -1.0}, {"date": "2018-01-07 00:00:00", "centroid_lon": -85.12357379535713, "centroid_lat": 38.66783831186265, "state": "21_Kentucky", "county": "041_Carroll", "type": "TCI", "mean": -1.0}, {"date": "2018-01-07 00:00:00", "centroid_lon": -85.05865143331127, "centroid_lat": 36.99109064201448, "state": "21_Kentucky", "county": "207_Russell", "type": "TCI", "mean": -1.0}, {"date": "2018-01-07 00:00:00", "centroid_lon": -84.86684215389377, "centroid_lat": 37.62438277360131, "state": "21_Kentucky", "county": "021_Boyle", "type": "TCI", "mean": -1.0}, {"date": "2018-01-07 00:00:00", "centroid_lon": -84.66084396512285, "centroid_lat": 37.45536764965259, "state": "21_Kentucky", "county": "137_Lincoln", "type": "TCI", "mean": -1.0}, {"date": "2018-01-07 00:00:00", "centroid_lon": -85.28062000478377, "centroid_lat": 37.10417005947443, "state": "21_Kentucky", "county": "001_Adair", "type": "TCI", "mean": -1.0}, {"date": "2018-01-07 00:00:00", "centroid_lon": -84.85932836826457, "centroid_lat": 38.75687067727053, "state": "21_Kentucky", "county": "077_Gallatin", "type": "TCI", "mean": -1.0}, {"date": "2018-01-07 00:00:00", "centroid_lon": -85.7164801685688, "centroid_lat": 36.71215466671931, "state": "21_Kentucky", "county": "171_Monroe", "type": "TCI", "mean": -1.0}, {"date": "2018-01-07 00:00:00", "centroid_lon": -85.11891597272236, "centroid_lat": 38.44846710198817, "state": "21_Kentucky", "county": "103_Henry", "type": "TCI", "mean": -1.0}, {"date": "2018-01-07 00:00:00", "centroid_lon": -83.67408276436717, "centroid_lat": 36.73064599952874, "state": "21_Kentucky", "county": "013_Bell", "type": "TCI", "mean": -1.0}, {"date": "2018-01-07 00:00:00", "centroid_lon": -83.91314317332643, "centroid_lat": 38.0335182625893, "state": "21_Kentucky", "county": "173_Montgomery", "type": "TCI", "mean": -1.0}, {"date": "2018-01-07 00:00:00", "centroid_lon": -84.57725002048798, "centroid_lat": 37.10386539051192, "state": "21_Kentucky", "county": "199_Pulaski", "type": "TCI", "mean": -1.0}, {"date": "2018-01-07 00:00:00", "centroid_lon": -86.42380702736384, "centroid_lat": 36.99357344980514, "state": "21_Kentucky", "county": "227_Warren", "type": "TCI", "mean": -1.0}, {"date": "2018-01-07 00:00:00", "centroid_lon": -86.582243591165, "centroid_lat": 36.74195035731293, "state": "21_Kentucky", "county": "213_Simpson", "type": "TCI", "mean": -1.0}, {"date": "2018-01-07 00:00:00", "centroid_lon": -85.65913786045651, "centroid_lat": 38.1871751146485, "state": "21_Kentucky", "county": "111_Jefferson", "type": "TCI", "mean": -1.0}, {"date": "2018-01-07 00:00:00", "centroid_lon": -83.7161957693527, "centroid_lat": 37.594802494499824, "state": "21_Kentucky", "county": "129_Lee", "type": "TCI", "mean": -1.0}, {"date": "2018-01-07 00:00:00", "centroid_lon": -85.62922747620956, "centroid_lat": 36.99053101751963, "state": "21_Kentucky", "county": "169_Metcalfe", "type": "TCI", "mean": -1.0}, {"date": "2018-01-07 00:00:00", "centroid_lon": -88.71265236936874, "centroid_lat": 37.05395743324653, "state": "21_Kentucky", "county": "145_McCracken", "type": "TCI", "mean": -1.0}, {"date": "2018-01-07 00:00:00", "centroid_lon": -85.3278265395151, "centroid_lat": 38.032520172156666, "state": "21_Kentucky", "county": "215_Spencer", "type": "TCI", "mean": -1.0}, {"date": "2018-01-07 00:00:00", "centroid_lon": -87.87335278270679, "centroid_lat": 36.80635867581018, "state": "21_Kentucky", "county": "221_Trigg", "type": "TCI", "mean": -1.0}, {"date": "2018-01-07 00:00:00", "centroid_lon": -82.73475457983876, "centroid_lat": 38.067875670714024, "state": "21_Kentucky", "county": "127_Lawrence", "type": "TCI", "mean": -1.0}, {"date": "2018-01-07 00:00:00", "centroid_lon": -88.97098353747674, "centroid_lat": 36.85320008487633, "state": "21_Kentucky", "county": "039_Carlisle", "type": "TCI", "mean": -1.0}, {"date": "2018-01-07 00:00:00", "centroid_lon": -86.21697476531591, "centroid_lat": 37.96974097454856, "state": "21_Kentucky", "county": "163_Meade", "type": "TCI", "mean": -1.0}, {"date": "2018-01-07 00:00:00", "centroid_lon": -84.3602544179794, "centroid_lat": 38.69563700048995, "state": "21_Kentucky", "county": "191_Pendleton", "type": "TCI", "mean": -1.0}, {"date": "2018-01-07 00:00:00", "centroid_lon": -88.08316021748789, "centroid_lat": 37.01910068845362, "state": "21_Kentucky", "county": "143_Lyon", "type": "TCI", "mean": -1.0}, {"date": "2018-01-07 00:00:00", "centroid_lon": -87.1792339281887, "centroid_lat": 36.83568224501858, "state": "21_Kentucky", "county": "219_Todd", "type": "TCI", "mean": -1.0}, {"date": "2018-01-07 00:00:00", "centroid_lon": -84.87706177250062, "centroid_lat": 38.23915253806736, "state": "21_Kentucky", "county": "073_Franklin", "type": "TCI", "mean": -1.0}, {"date": "2018-01-07 00:00:00", "centroid_lon": -87.49045443601807, "centroid_lat": 36.894168865757905, "state": "21_Kentucky", "county": "047_Christian", "type": "TCI", "mean": -1.0}, {"date": "2018-01-07 00:00:00", "centroid_lon": -84.62458220942452, "centroid_lat": 38.64881433781495, "state": "21_Kentucky", "county": "081_Grant", "type": "TCI", "mean": -1.0}, {"date": "2018-01-07 00:00:00", "centroid_lon": -86.7779128414616, "centroid_lat": 37.84149090008979, "state": "21_Kentucky", "county": "091_Hancock", "type": "TCI", "mean": -1.0}, {"date": "2018-01-07 00:00:00", "centroid_lon": -85.19477852183913, "centroid_lat": 38.215453354167856, "state": "21_Kentucky", "county": "211_Shelby", "type": "TCI", "mean": -1.0}, {"date": "2018-01-07 00:00:00", "centroid_lon": -84.72783779986514, "centroid_lat": 38.96985577092007, "state": "21_Kentucky", "county": "015_Boone", "type": "TCI", "mean": -1.0}, {"date": "2018-01-07 00:00:00", "centroid_lon": -85.55312116210816, "centroid_lat": 37.26403739203013, "state": "21_Kentucky", "county": "087_Green", "type": "TCI", "mean": -1.0}, {"date": "2018-01-07 00:00:00", "centroid_lon": -82.6877535123391, "centroid_lat": 38.35957259337339, "state": "21_Kentucky", "county": "019_Boyd", "type": "TCI", "mean": -1.0}, {"date": "2018-01-07 00:00:00", "centroid_lon": -85.93366216125548, "centroid_lat": 36.96558592282019, "state": "21_Kentucky", "county": "009_Barren", "type": "TCI", "mean": -1.0}, {"date": "2018-01-07 00:00:00", "centroid_lon": -88.27224810688963, "centroid_lat": 36.62103516573017, "state": "21_Kentucky", "county": "035_Calloway", "type": "TCI", "mean": -1.0}, {"date": "2018-01-07 00:00:00", "centroid_lon": -85.13617382979244, "centroid_lat": 36.72744165280619, "state": "21_Kentucky", "county": "053_Clinton", "type": "TCI", "mean": -1.0}, {"date": "2018-01-07 00:00:00", "centroid_lon": -88.32937270260116, "centroid_lat": 36.88344279461687, "state": "21_Kentucky", "county": "157_Marshall", "type": "TCI", "mean": -1.0}, {"date": "2018-01-07 00:00:00", "centroid_lon": -84.53331131636237, "centroid_lat": 38.93339565485882, "state": "21_Kentucky", "county": "117_Kenton", "type": "TCI", "mean": -1.0}, {"date": "2018-01-07 00:00:00", "centroid_lon": -88.9761445546239, "centroid_lat": 36.678129569697674, "state": "21_Kentucky", "county": "105_Hickman", "type": "TCI", "mean": -1.0}, {"date": "2018-01-07 00:00:00", "centroid_lon": -86.23842222167913, "centroid_lat": 37.208798627219004, "state": "21_Kentucky", "county": "061_Edmonson", "type": "TCI", "mean": -1.0}, {"date": "2018-01-07 00:00:00", "centroid_lon": -87.68316316664007, "centroid_lat": 37.518443534318365, "state": "21_Kentucky", "county": "233_Webster", "type": "TCI", "mean": -1.0}, {"date": "2018-01-07 00:00:00", "centroid_lon": -87.0872698113088, "centroid_lat": 37.73178563624605, "state": "21_Kentucky", "county": "059_Daviess", "type": "TCI", "mean": -1.0}, {"date": "2018-01-07 00:00:00", "centroid_lon": -83.85404403118103, "centroid_lat": 36.89064843281333, "state": "21_Kentucky", "county": "121_Knox", "type": "TCI", "mean": -1.0}, {"date": "2018-01-07 00:00:00", "centroid_lon": -87.14203054728944, "centroid_lat": 37.21578974706442, "state": "21_Kentucky", "county": "177_Muhlenberg", "type": "TCI", "mean": -1.0}, {"date": "2018-01-07 00:00:00", "centroid_lon": -84.37951741018959, "centroid_lat": 38.94651468787947, "state": "21_Kentucky", "county": "037_Campbell", "type": "TCI", "mean": -1.0}, {"date": "2018-01-07 00:00:00", "centroid_lon": -84.0901445948043, "centroid_lat": 38.68879489397332, "state": "21_Kentucky", "county": "023_Bracken", "type": "TCI", "mean": -1.0}, {"date": "2018-01-07 00:00:00", "centroid_lon": -82.8315146972198, "centroid_lat": 37.84664100717844, "state": "21_Kentucky", "county": "115_Johnson", "type": "TCI", "mean": -1.0}, {"date": "2018-01-07 00:00:00", "centroid_lon": -83.21799385909355, "centroid_lat": 36.85694550915251, "state": "21_Kentucky", "county": "095_Harlan", "type": "TCI", "mean": -1.0}, {"date": "2018-01-07 00:00:00", "centroid_lon": -87.54083661160294, "centroid_lat": 37.308839583332414, "state": "21_Kentucky", "county": "107_Hopkins", "type": "TCI", "mean": -1.0}, {"date": "2018-01-07 00:00:00", "centroid_lon": -85.44833915652816, "centroid_lat": 38.39943805065173, "state": "21_Kentucky", "county": "185_Oldham", "type": "TCI", "mean": -1.0}, {"date": "2018-01-07 00:00:00", "centroid_lon": -83.82408709096578, "centroid_lat": 38.59518639387621, "state": "21_Kentucky", "county": "161_Mason", "type": "TCI", "mean": -1.0}, {"date": "2018-01-07 00:00:00", "centroid_lon": -85.388512347879, "centroid_lat": 36.78659786357603, "state": "21_Kentucky", "county": "057_Cumberland", "type": "TCI", "mean": -1.0}, {"date": "2018-01-07 00:00:00", "centroid_lon": -87.26360911090005, "centroid_lat": 37.52919290911708, "state": "21_Kentucky", "county": "149_McLean", "type": "TCI", "mean": -1.0}, {"date": "2018-01-07 00:00:00", "centroid_lon": -85.33754103060913, "centroid_lat": 38.612997105965476, "state": "21_Kentucky", "county": "223_Trimble", "type": "TCI", "mean": -1.0}, {"date": "2018-01-07 00:00:00", "centroid_lon": -87.94534461799576, "centroid_lat": 37.6584619911437, "state": "21_Kentucky", "county": "225_Union", "type": "TCI", "mean": -1.0}]