[{"date": "2018-01-07 00:00:00", "centroid_lon": -76.60506838121908, "centroid_lat": 39.006462795212464, "state": "24_Maryland", "county": "003_Anne Arundel", "type": "TCI", "mean": -1.0}, {"date": "2018-01-07 00:00:00", "centroid_lon": -75.83155513760053, "centroid_lat": 38.871713019971395, "state": "24_Maryland", "county": "011_Caroline", "type": "TCI", "mean": -1.0}, {"date": "2018-01-07 00:00:00", "centroid_lon": -76.84727989038237, "centroid_lat": 38.82952706870395, "state": "24_Maryland", "county": "033_Prince George's", "type": "TCI", "mean": -1.0}, {"date": "2018-01-07 00:00:00", "centroid_lon": -77.81395284237894, "centroid_lat": 39.603606714399554, "state": "24_Maryland", "county": "043_Washington", "type": "TCI", "mean": -1.0}, {"date": "2018-01-07 00:00:00", "centroid_lon": -78.69761748858399, "centroid_lat": 39.621450400025466, "state": "24_Maryland", "county": "001_Allegany", "type": "TCI", "mean": -1.0}, {"date": "2018-01-07 00:00:00", "centroid_lon": -76.63929187944457, "centroid_lat": 39.462711425826335, "state": "24_Maryland", "county": "005_Baltimore", "type": "TCI", "mean": -1.0}, {"date": "2018-01-07 00:00:00", "centroid_lon": -76.99216185240924, "centroid_lat": 38.50729459505152, "state": "24_Maryland", "county": "017_Charles", "type": "TCI", "mean": -1.0}, {"date": "2018-01-07 00:00:00", "centroid_lon": -77.39800660433312, "centroid_lat": 39.47223039383328, "state": "24_Maryland", "county": "021_Frederick", "type": "TCI", "mean": -1.0}, {"date": "2018-01-07 00:00:00", "centroid_lon": -77.2041824932736, "centroid_lat": 39.136333991721, "state": "24_Maryland", "county": "031_Montgomery", "type": "TCI", "mean": -1.0}, {"date": "2018-01-07 00:00:00", "centroid_lon": -75.62078298453402, "centroid_lat": 38.37329433269879, "state": "24_Maryland", "county": "045_Wicomico", "type": "TCI", "mean": -1.0}, {"date": "2018-01-07 00:00:00", "centroid_lon": -76.03992874008948, "centroid_lat": 39.25453705534906, "state": "24_Maryland", "county": "029_Kent", "type": "TCI", "mean": -1.0}, {"date": "2018-01-07 00:00:00", "centroid_lon": -75.33400402915544, "centroid_lat": 38.21277854797275, "state": "24_Maryland", "county": "047_Worcester", "type": "TCI", "mean": -1.0}, {"date": "2018-01-07 00:00:00", "centroid_lon": -79.27293893642435, "centroid_lat": 39.52888601422443, "state": "24_Maryland", "county": "023_Garrett", "type": "TCI", "mean": -1.0}, {"date": "2018-01-07 00:00:00", "centroid_lon": -75.94073959021587, "centroid_lat": 39.57124103764161, "state": "24_Maryland", "county": "015_Cecil", "type": "TCI", "mean": -1.0}, {"date": "2018-01-07 00:00:00", "centroid_lon": -75.75175601712446, "centroid_lat": 38.11578047589774, "state": "24_Maryland", "county": "039_Somerset", "type": "TCI", "mean": -1.0}, {"date": "2018-01-07 00:00:00", "centroid_lon": -76.93118995344891, "centroid_lat": 39.25072395913636, "state": "24_Maryland", "county": "027_Howard", "type": "TCI", "mean": -1.0}, {"date": "2018-01-07 00:00:00", "centroid_lon": -76.01254892310246, "centroid_lat": 38.48290909031766, "state": "24_Maryland", "county": "019_Dorchester", "type": "TCI", "mean": -1.0}, {"date": "2018-01-07 00:00:00", "centroid_lon": -76.317056494158, "centroid_lat": 39.56109150112222, "state": "24_Maryland", "county": "025_Harford", "type": "TCI", "mean": -1.0}, {"date": "2018-01-07 00:00:00", "centroid_lon": -76.0202763332739, "centroid_lat": 39.06801418233735, "state": "24_Maryland", "county": "035_Queen Anne's", "type": "TCI", "mean": -1.0}, {"date": "2018-01-07 00:00:00", "centroid_lon": -76.5686791301433, "centroid_lat": 38.54336128225932, "state": "24_Maryland", "county": "009_Calvert", "type": "TCI", "mean": -1.0}, {"date": "2018-01-07 00:00:00", "centroid_lon": -76.61444153574683, "centroid_lat": 39.30507926509908, "state": "24_Maryland", "county": "510_Baltimore", "type": "TCI", "mean": -1.0}, {"date": "2018-01-07 00:00:00", "centroid_lon": -76.60584716144633, "centroid_lat": 38.302397584541914, "state": "24_Maryland", "county": "037_St. Mary's", "type": "TCI", "mean": -1.0}, {"date": "2018-01-07 00:00:00", "centroid_lon": -77.02254594636807, "centroid_lat": 39.562884093915926, "state": "24_Maryland", "county": "013_Carroll", "type": "TCI", "mean": -1.0}, {"date": "2018-01-07 00:00:00", "centroid_lon": -76.09710010326218, "centroid_lat": 38.77134601729188, "state": "24_Maryland", "county": "041_Talbot", "type": "TCI", "mean": -1.0}]