[{"date": "2018-01-07 00:00:00", "centroid_lon": -95.56669431680612, "centroid_lat": 45.02233286046325, "state": "27_Minnesota", "county": "023_Chippewa", "type": "TCI", "mean": -1.0}, {"date": "2018-01-07 00:00:00", "centroid_lon": -93.47688798078593, "centroid_lat": 45.00457459364063, "state": "27_Minnesota", "county": "053_Hennepin", "type": "TCI", "mean": -1.0}, {"date": "2018-01-07 00:00:00", "centroid_lon": -94.90456673507406, "centroid_lat": 48.7712493235271, "state": "27_Minnesota", "county": "077_Lake of the Woods", "type": "TCI", "mean": -1.0}, {"date": "2018-01-07 00:00:00", "centroid_lon": -94.55116400535147, "centroid_lat": 43.674315058504995, "state": "27_Minnesota", "county": "091_Martin", "type": "TCI", "mean": -1.0}, {"date": "2018-01-07 00:00:00", "centroid_lon": -94.94711956025589, "centroid_lat": 44.72681383547321, "state": "27_Minnesota", "county": "129_Renville", "type": "TCI", "mean": -1.0}, {"date": "2018-01-07 00:00:00", "centroid_lon": -93.5358933130835, "centroid_lat": 44.648465426090645, "state": "27_Minnesota", "county": "139_Scott", "type": "TCI", "mean": -1.0}, {"date": "2018-01-07 00:00:00", "centroid_lon": -92.88393502172768, "centroid_lat": 45.03869826240813, "state": "27_Minnesota", "county": "163_Washington", "type": "TCI", "mean": -1.0}, {"date": "2018-01-07 00:00:00", "centroid_lon": -96.41094242158476, "centroid_lat": 45.42610194671308, "state": "27_Minnesota", "county": "011_Big Stone", "type": "TCI", "mean": -1.0}, {"date": "2018-01-07 00:00:00", "centroid_lon": -94.06700987445193, "centroid_lat": 44.03458691647291, "state": "27_Minnesota", "county": "013_Blue Earth", "type": "TCI", "mean": -1.0}, {"date": "2018-01-07 00:00:00", "centroid_lon": -90.5346354572335, "centroid_lat": 47.902567508871265, "state": "27_Minnesota", "county": "031_Cook", "type": "TCI", "mean": -1.0}, {"date": "2018-01-07 00:00:00", "centroid_lon": -93.63197434955366, "centroid_lat": 47.50951026659967, "state": "27_Minnesota", "county": "061_Itasca", "type": "TCI", "mean": -1.0}, {"date": "2018-01-07 00:00:00", "centroid_lon": -96.17351557770291, "centroid_lat": 44.99547442639863, "state": "27_Minnesota", "county": "073_Lac qui Parle", "type": "TCI", "mean": -1.0}, {"date": "2018-01-07 00:00:00", "centroid_lon": -91.44572875496075, "centroid_lat": 47.64092760386797, "state": "27_Minnesota", "county": "075_Lake", "type": "TCI", "mean": -1.0}, {"date": "2018-01-07 00:00:00", "centroid_lon": -96.36844519900589, "centroid_lat": 48.358115515911706, "state": "27_Minnesota", "county": "089_Marshall", "type": "TCI", "mean": -1.0}, {"date": "2018-01-07 00:00:00", "centroid_lon": -94.26839131420742, "centroid_lat": 46.01261825734456, "state": "27_Minnesota", "county": "097_Morrison", "type": "TCI", "mean": -1.0}, {"date": "2018-01-07 00:00:00", "centroid_lon": -95.25383934432678, "centroid_lat": 44.403664433477516, "state": "27_Minnesota", "county": "127_Redwood", "type": "TCI", "mean": -1.0}, {"date": "2018-01-07 00:00:00", "centroid_lon": -93.58726849974653, "centroid_lat": 44.022114427228566, "state": "27_Minnesota", "county": "161_Waseca", "type": "TCI", "mean": -1.0}, {"date": "2018-01-07 00:00:00", "centroid_lon": -93.96305476645412, "centroid_lat": 45.17394987096562, "state": "27_Minnesota", "county": "171_Wright", "type": "TCI", "mean": -1.0}, {"date": "2018-01-07 00:00:00", "centroid_lon": -94.72759343372233, "centroid_lat": 44.24213685253793, "state": "27_Minnesota", "county": "015_Brown", "type": "TCI", "mean": -1.0}, {"date": "2018-01-07 00:00:00", "centroid_lon": -96.46832594799865, "centroid_lat": 46.35706126008077, "state": "27_Minnesota", "county": "167_Wilkin", "type": "TCI", "mean": -1.0}, {"date": "2018-01-07 00:00:00", "centroid_lon": -94.32537160944469, "centroid_lat": 46.949593802973496, "state": "27_Minnesota", "county": "021_Cass", "type": "TCI", "mean": -1.0}, {"date": "2018-01-07 00:00:00", "centroid_lon": -95.80904239713857, "centroid_lat": 47.32530991975913, "state": "27_Minnesota", "county": "087_Mahnomen", "type": "TCI", "mean": -1.0}, {"date": "2018-01-07 00:00:00", "centroid_lon": -95.86836213585333, "centroid_lat": 44.7162486227744, "state": "27_Minnesota", "county": "173_Yellow Medicine", "type": "TCI", "mean": -1.0}, {"date": "2018-01-07 00:00:00", "centroid_lon": -94.24739495606013, "centroid_lat": 44.349881682506435, "state": "27_Minnesota", "county": "103_Nicollet", "type": "TCI", "mean": -1.0}, {"date": "2018-01-07 00:00:00", "centroid_lon": -92.47063162489935, "centroid_lat": 47.60315653765763, "state": "27_Minnesota", "county": "137_St. Louis", "type": "TCI", "mean": -1.0}, {"date": "2018-01-07 00:00:00", "centroid_lon": -95.00471728099464, "centroid_lat": 45.15236884356373, "state": "27_Minnesota", "county": "067_Kandiyohi", "type": "TCI", "mean": -1.0}, {"date": "2018-01-07 00:00:00", "centroid_lon": -96.40187410758931, "centroid_lat": 47.773861770299014, "state": "27_Minnesota", "county": "119_Polk", "type": "TCI", "mean": -1.0}, {"date": "2018-01-07 00:00:00", "centroid_lon": -96.78286650434079, "centroid_lat": 48.77663057301637, "state": "27_Minnesota", "county": "069_Kittson", "type": "TCI", "mean": -1.0}, {"date": "2018-01-07 00:00:00", "centroid_lon": -96.45528979876761, "centroid_lat": 47.32646320409326, "state": "27_Minnesota", "county": "107_Norman", "type": "TCI", "mean": -1.0}, {"date": "2018-01-07 00:00:00", "centroid_lon": -94.61301735420578, "centroid_lat": 45.55214395345862, "state": "27_Minnesota", "county": "145_Stearns", "type": "TCI", "mean": -1.0}, {"date": "2018-01-07 00:00:00", "centroid_lon": -94.89759096282957, "centroid_lat": 46.070613583918245, "state": "27_Minnesota", "county": "153_Todd", "type": "TCI", "mean": -1.0}, {"date": "2018-01-07 00:00:00", "centroid_lon": -92.23027086288225, "centroid_lat": 44.284293928664745, "state": "27_Minnesota", "county": "157_Wabasha", "type": "TCI", "mean": -1.0}, {"date": "2018-01-07 00:00:00", "centroid_lon": -93.63007492212222, "centroid_lat": 45.93802704350991, "state": "27_Minnesota", "county": "095_Mille Lacs", "type": "TCI", "mean": -1.0}, {"date": "2018-01-07 00:00:00", "centroid_lon": -95.76327372206997, "centroid_lat": 44.02216246070643, "state": "27_Minnesota", "county": "101_Murray", "type": "TCI", "mean": -1.0}, {"date": "2018-01-07 00:00:00", "centroid_lon": -92.40175127446382, "centroid_lat": 44.0037595727588, "state": "27_Minnesota", "county": "109_Olmsted", "type": "TCI", "mean": -1.0}, {"date": "2018-01-07 00:00:00", "centroid_lon": -96.095349737732, "centroid_lat": 47.87168986700011, "state": "27_Minnesota", "county": "125_Red Lake", "type": "TCI", "mean": -1.0}, {"date": "2018-01-07 00:00:00", "centroid_lon": -93.78333507494783, "centroid_lat": 48.24530141529881, "state": "27_Minnesota", "county": "071_Koochiching", "type": "TCI", "mean": -1.0}, {"date": "2018-01-07 00:00:00", "centroid_lon": -96.26711246697911, "centroid_lat": 44.41260789914663, "state": "27_Minnesota", "county": "081_Lincoln", "type": "TCI", "mean": -1.0}, {"date": "2018-01-07 00:00:00", "centroid_lon": -95.18119514634765, "centroid_lat": 44.00712525823346, "state": "27_Minnesota", "county": "033_Cottonwood", "type": "TCI", "mean": -1.0}, {"date": "2018-01-07 00:00:00", "centroid_lon": -93.94792869202057, "centroid_lat": 43.67391956289543, "state": "27_Minnesota", "county": "043_Faribault", "type": "TCI", "mean": -1.0}, {"date": "2018-01-07 00:00:00", "centroid_lon": -93.77458964740707, "centroid_lat": 45.44394260160728, "state": "27_Minnesota", "county": "141_Sherburne", "type": "TCI", "mean": -1.0}, {"date": "2018-01-07 00:00:00", "centroid_lon": -93.22604753262176, "centroid_lat": 44.02234102076885, "state": "27_Minnesota", "county": "147_Steele", "type": "TCI", "mean": -1.0}, {"date": "2018-01-07 00:00:00", "centroid_lon": -95.6814409613736, "centroid_lat": 45.28268658217178, "state": "27_Minnesota", "county": "151_Swift", "type": "TCI", "mean": -1.0}, {"date": "2018-01-07 00:00:00", "centroid_lon": -93.29668219162868, "centroid_lat": 44.354257023938686, "state": "27_Minnesota", "county": "131_Rice", "type": "TCI", "mean": -1.0}, {"date": "2018-01-07 00:00:00", "centroid_lon": -95.81083395507697, "centroid_lat": 48.775114090240045, "state": "27_Minnesota", "county": "135_Roseau", "type": "TCI", "mean": -1.0}, {"date": "2018-01-07 00:00:00", "centroid_lon": -95.839012257687, "centroid_lat": 44.413532589227884, "state": "27_Minnesota", "county": "083_Lyon", "type": "TCI", "mean": -1.0}, {"date": "2018-01-07 00:00:00", "centroid_lon": -94.5273216945674, "centroid_lat": 45.123104338143094, "state": "27_Minnesota", "county": "093_Meeker", "type": "TCI", "mean": -1.0}, {"date": "2018-01-07 00:00:00", "centroid_lon": -92.75252926771797, "centroid_lat": 43.6714314001307, "state": "27_Minnesota", "county": "099_Mower", "type": "TCI", "mean": -1.0}, {"date": "2018-01-07 00:00:00", "centroid_lon": -96.25864867862386, "centroid_lat": 44.0230087550615, "state": "27_Minnesota", "county": "117_Pipestone", "type": "TCI", "mean": -1.0}, {"date": "2018-01-07 00:00:00", "centroid_lon": -95.44450259659055, "centroid_lat": 45.586001554642266, "state": "27_Minnesota", "county": "121_Pope", "type": "TCI", "mean": -1.0}, {"date": "2018-01-07 00:00:00", "centroid_lon": -95.45352827657881, "centroid_lat": 45.93372358444518, "state": "27_Minnesota", "county": "041_Douglas", "type": "TCI", "mean": -1.0}, {"date": "2018-01-07 00:00:00", "centroid_lon": -92.09016616988129, "centroid_lat": 43.67395263239723, "state": "27_Minnesota", "county": "045_Fillmore", "type": "TCI", "mean": -1.0}, {"date": "2018-01-07 00:00:00", "centroid_lon": -93.09961131614627, "centroid_lat": 45.01705736959583, "state": "27_Minnesota", "county": "123_Ramsey", "type": "TCI", "mean": -1.0}, {"date": "2018-01-07 00:00:00", "centroid_lon": -93.41542609209836, "centroid_lat": 46.6082284438226, "state": "27_Minnesota", "county": "001_Aitkin", "type": "TCI", "mean": -1.0}, {"date": "2018-01-07 00:00:00", "centroid_lon": -95.6739649258045, "centroid_lat": 46.93464855483317, "state": "27_Minnesota", "county": "005_Becker", "type": "TCI", "mean": -1.0}, {"date": "2018-01-07 00:00:00", "centroid_lon": -96.25320593526672, "centroid_lat": 43.67469049315704, "state": "27_Minnesota", "county": "133_Rock", "type": "TCI", "mean": -1.0}, {"date": "2018-01-07 00:00:00", "centroid_lon": -93.80259867025539, "centroid_lat": 44.82079018253497, "state": "27_Minnesota", "county": "019_Carver", "type": "TCI", "mean": -1.0}, {"date": "2018-01-07 00:00:00", "centroid_lon": -95.3790255566791, "centroid_lat": 47.577541854118635, "state": "27_Minnesota", "county": "029_Clearwater", "type": "TCI", "mean": -1.0}, {"date": "2018-01-07 00:00:00", "centroid_lon": -96.47159115602548, "centroid_lat": 45.772178471240636, "state": "27_Minnesota", "county": "155_Traverse", "type": "TCI", "mean": -1.0}, {"date": "2018-01-07 00:00:00", "centroid_lon": -94.96939499030113, "centroid_lat": 46.58576477399113, "state": "27_Minnesota", "county": "159_Wadena", "type": "TCI", "mean": -1.0}, {"date": "2018-01-07 00:00:00", "centroid_lon": -91.77915639471983, "centroid_lat": 43.98684965306499, "state": "27_Minnesota", "county": "169_Winona", "type": "TCI", "mean": -1.0}, {"date": "2018-01-07 00:00:00", "centroid_lon": -93.29513550196585, "centroid_lat": 45.56148675413558, "state": "27_Minnesota", "county": "059_Isanti", "type": "TCI", "mean": -1.0}, {"date": "2018-01-07 00:00:00", "centroid_lon": -91.49288529244183, "centroid_lat": 43.67143646701543, "state": "27_Minnesota", "county": "055_Houston", "type": "TCI", "mean": -1.0}, {"date": "2018-01-07 00:00:00", "centroid_lon": -94.27240089265685, "centroid_lat": 44.82355662722042, "state": "27_Minnesota", "county": "085_McLeod", "type": "TCI", "mean": -1.0}, {"date": "2018-01-07 00:00:00", "centroid_lon": -94.07089870803861, "centroid_lat": 46.482445149471346, "state": "27_Minnesota", "county": "035_Crow Wing", "type": "TCI", "mean": -1.0}, {"date": "2018-01-07 00:00:00", "centroid_lon": -92.6770339595206, "centroid_lat": 46.592408659048886, "state": "27_Minnesota", "county": "017_Carlton", "type": "TCI", "mean": -1.0}, {"date": "2018-01-07 00:00:00", "centroid_lon": -92.72257214672686, "centroid_lat": 44.40986491819118, "state": "27_Minnesota", "county": "049_Goodhue", "type": "TCI", "mean": -1.0}, {"date": "2018-01-07 00:00:00", "centroid_lon": -93.29336989858066, "centroid_lat": 45.94518745682779, "state": "27_Minnesota", "county": "065_Kanabec", "type": "TCI", "mean": -1.0}, {"date": "2018-01-07 00:00:00", "centroid_lon": -93.99882914520038, "centroid_lat": 45.69910576137705, "state": "27_Minnesota", "county": "009_Benton", "type": "TCI", "mean": -1.0}, {"date": "2018-01-07 00:00:00", "centroid_lon": -94.91663732703212, "centroid_lat": 47.108637907684994, "state": "27_Minnesota", "county": "057_Hubbard", "type": "TCI", "mean": -1.0}, {"date": "2018-01-07 00:00:00", "centroid_lon": -94.93765105507495, "centroid_lat": 47.973754225748, "state": "27_Minnesota", "county": "007_Beltrami", "type": "TCI", "mean": -1.0}, {"date": "2018-01-07 00:00:00", "centroid_lon": -93.73009897909019, "centroid_lat": 44.3714350387128, "state": "27_Minnesota", "county": "079_Le Sueur", "type": "TCI", "mean": -1.0}, {"date": "2018-01-07 00:00:00", "centroid_lon": -92.86204695011946, "centroid_lat": 44.02260691963992, "state": "27_Minnesota", "county": "039_Dodge", "type": "TCI", "mean": -1.0}, {"date": "2018-01-07 00:00:00", "centroid_lon": -95.15401903915098, "centroid_lat": 43.67411861409191, "state": "27_Minnesota", "county": "063_Jackson", "type": "TCI", "mean": -1.0}, {"date": "2018-01-07 00:00:00", "centroid_lon": -95.70799386548445, "centroid_lat": 46.40880096787829, "state": "27_Minnesota", "county": "111_Otter Tail", "type": "TCI", "mean": -1.0}, {"date": "2018-01-07 00:00:00", "centroid_lon": -94.61407412152279, "centroid_lat": 43.97843767055018, "state": "27_Minnesota", "county": "165_Watonwan", "type": "TCI", "mean": -1.0}, {"date": "2018-01-07 00:00:00", "centroid_lon": -92.74133481386276, "centroid_lat": 46.120756939630844, "state": "27_Minnesota", "county": "115_Pine", "type": "TCI", "mean": -1.0}, {"date": "2018-01-07 00:00:00", "centroid_lon": -94.23212716811696, "centroid_lat": 44.57949765531174, "state": "27_Minnesota", "county": "143_Sibley", "type": "TCI", "mean": -1.0}, {"date": "2018-01-07 00:00:00", "centroid_lon": -95.75336596338452, "centroid_lat": 43.674233320216445, "state": "27_Minnesota", "county": "105_Nobles", "type": "TCI", "mean": -1.0}, {"date": "2018-01-07 00:00:00", "centroid_lon": -96.00030565805008, "centroid_lat": 45.58612258305819, "state": "27_Minnesota", "county": "149_Stevens", "type": "TCI", "mean": -1.0}, {"date": "2018-01-07 00:00:00", "centroid_lon": -92.90833136842153, "centroid_lat": 45.502460113762936, "state": "27_Minnesota", "county": "025_Chisago", "type": "TCI", "mean": -1.0}, {"date": "2018-01-07 00:00:00", "centroid_lon": -93.06543450027411, "centroid_lat": 44.67187041638421, "state": "27_Minnesota", "county": "037_Dakota", "type": "TCI", "mean": -1.0}, {"date": "2018-01-07 00:00:00", "centroid_lon": -96.01217476386007, "centroid_lat": 45.934051150981894, "state": "27_Minnesota", "county": "051_Grant", "type": "TCI", "mean": -1.0}, {"date": "2018-01-07 00:00:00", "centroid_lon": -93.34882080380036, "centroid_lat": 43.67380835483271, "state": "27_Minnesota", "county": "047_Freeborn", "type": "TCI", "mean": -1.0}, {"date": "2018-01-07 00:00:00", "centroid_lon": -93.2464772834708, "centroid_lat": 45.27325655172097, "state": "27_Minnesota", "county": "003_Anoka", "type": "TCI", "mean": -1.0}, {"date": "2018-01-07 00:00:00", "centroid_lon": -96.49064955433403, "centroid_lat": 46.892350473557066, "state": "27_Minnesota", "county": "027_Clay", "type": "TCI", "mean": -1.0}, {"date": "2018-01-07 00:00:00", "centroid_lon": -96.03669990648173, "centroid_lat": 48.066232207837544, "state": "27_Minnesota", "county": "113_Pennington", "type": "TCI", "mean": -1.0}]