[{"date": "2018-01-07 00:00:00", "centroid_lon": -98.6296578363939, "centroid_lat": 44.06633379814545, "state": "46_South Dakota", "county": "073_Jerauld", "type": "TCI", "mean": -1.0}, {"date": "2018-01-07 00:00:00", "centroid_lon": -102.71684607718852, "centroid_lat": 44.56681436137935, "state": "46_South Dakota", "county": "093_Meade", "type": "TCI", "mean": -1.0}, {"date": "2018-01-07 00:00:00", "centroid_lon": -100.75998129488833, "centroid_lat": 43.58125834827382, "state": "46_South Dakota", "county": "095_Mellette", "type": "TCI", "mean": -1.0}, {"date": "2018-01-07 00:00:00", "centroid_lon": -99.88395929721237, "centroid_lat": 43.34593249166198, "state": "46_South Dakota", "county": "123_Tripp", "type": "TCI", "mean": -1.0}, {"date": "2018-01-07 00:00:00", "centroid_lon": -97.7544234687182, "centroid_lat": 43.33486552474434, "state": "46_South Dakota", "county": "067_Hutchinson", "type": "TCI", "mean": -1.0}, {"date": "2018-01-07 00:00:00", "centroid_lon": -99.8473728404392, "centroid_lat": 43.89582568171232, "state": "46_South Dakota", "county": "085_Lyman", "type": "TCI", "mean": -1.0}, {"date": "2018-01-07 00:00:00", "centroid_lon": -100.73590849114589, "centroid_lat": 44.41230092483227, "state": "46_South Dakota", "county": "117_Stanley", "type": "TCI", "mean": -1.0}, {"date": "2018-01-07 00:00:00", "centroid_lon": -97.8846206044916, "centroid_lat": 42.98846678306617, "state": "46_South Dakota", "county": "009_Bon Homme", "type": "TCI", "mean": -1.0}, {"date": "2018-01-07 00:00:00", "centroid_lon": -100.87184165010827, "centroid_lat": 45.1566391857395, "state": "46_South Dakota", "county": "041_Dewey", "type": "TCI", "mean": -1.0}, {"date": "2018-01-07 00:00:00", "centroid_lon": -101.62813009867462, "centroid_lat": 43.694255978209846, "state": "46_South Dakota", "county": "071_Jackson", "type": "TCI", "mean": -1.0}, {"date": "2018-01-07 00:00:00", "centroid_lon": -100.68971332476286, "centroid_lat": 43.960592884143935, "state": "46_South Dakota", "county": "075_Jones", "type": "TCI", "mean": -1.0}, {"date": "2018-01-07 00:00:00", "centroid_lon": -97.12935741481473, "centroid_lat": 44.02205747519507, "state": "46_South Dakota", "county": "079_Lake", "type": "TCI", "mean": -1.0}, {"date": "2018-01-07 00:00:00", "centroid_lon": -96.65602661628384, "centroid_lat": 42.83257500528638, "state": "46_South Dakota", "county": "127_Union", "type": "TCI", "mean": -1.0}, {"date": "2018-01-07 00:00:00", "centroid_lon": -101.53992524704728, "centroid_lat": 44.294441730564586, "state": "46_South Dakota", "county": "055_Haakon", "type": "TCI", "mean": -1.0}, {"date": "2018-01-07 00:00:00", "centroid_lon": -98.56154177943439, "centroid_lat": 43.718012811192246, "state": "46_South Dakota", "county": "003_Aurora", "type": "TCI", "mean": -1.0}, {"date": "2018-01-07 00:00:00", "centroid_lon": -98.58790664071581, "centroid_lat": 43.20792553185916, "state": "46_South Dakota", "county": "023_Charles Mix", "type": "TCI", "mean": -1.0}, {"date": "2018-01-07 00:00:00", "centroid_lon": -98.09134329321002, "centroid_lat": 44.023417327289245, "state": "46_South Dakota", "county": "111_Sanborn", "type": "TCI", "mean": -1.0}, {"date": "2018-01-07 00:00:00", "centroid_lon": -96.94609796409709, "centroid_lat": 45.62956820845965, "state": "46_South Dakota", "county": "109_Roberts", "type": "TCI", "mean": -1.0}, {"date": "2018-01-07 00:00:00", "centroid_lon": -100.71845039420212, "centroid_lat": 43.19338498961513, "state": "46_South Dakota", "county": "121_Todd", "type": "TCI", "mean": -1.0}, {"date": "2018-01-07 00:00:00", "centroid_lon": -99.0809332886898, "centroid_lat": 43.718073951765064, "state": "46_South Dakota", "county": "015_Brule", "type": "TCI", "mean": -1.0}, {"date": "2018-01-07 00:00:00", "centroid_lon": -98.14595064799343, "centroid_lat": 43.67472433831372, "state": "46_South Dakota", "county": "035_Davison", "type": "TCI", "mean": -1.0}, {"date": "2018-01-07 00:00:00", "centroid_lon": -96.66801057388474, "centroid_lat": 44.760043160281825, "state": "46_South Dakota", "county": "039_Deuel", "type": "TCI", "mean": -1.0}, {"date": "2018-01-07 00:00:00", "centroid_lon": -99.14528616802096, "centroid_lat": 45.071014699736516, "state": "46_South Dakota", "county": "049_Faulk", "type": "TCI", "mean": -1.0}, {"date": "2018-01-07 00:00:00", "centroid_lon": -98.27811792766711, "centroid_lat": 44.414476958389486, "state": "46_South Dakota", "county": "005_Beadle", "type": "TCI", "mean": -1.0}, {"date": "2018-01-07 00:00:00", "centroid_lon": -96.79043334919021, "centroid_lat": 44.36966250191335, "state": "46_South Dakota", "county": "011_Brookings", "type": "TCI", "mean": -1.0}, {"date": "2018-01-07 00:00:00", "centroid_lon": -99.00492863644163, "centroid_lat": 44.54777520602474, "state": "46_South Dakota", "county": "059_Hand", "type": "TCI", "mean": -1.0}, {"date": "2018-01-07 00:00:00", "centroid_lon": -103.4958361203039, "centroid_lat": 45.5803248322142, "state": "46_South Dakota", "county": "063_Harding", "type": "TCI", "mean": -1.0}, {"date": "2018-01-07 00:00:00", "centroid_lon": -97.49150301178808, "centroid_lat": 44.369597399912344, "state": "46_South Dakota", "county": "077_Kingsbury", "type": "TCI", "mean": -1.0}, {"date": "2018-01-07 00:00:00", "centroid_lon": -97.36844463267865, "centroid_lat": 43.67429948681962, "state": "46_South Dakota", "county": "087_McCook", "type": "TCI", "mean": -1.0}, {"date": "2018-01-07 00:00:00", "centroid_lon": -99.22140805006973, "centroid_lat": 45.76640478945232, "state": "46_South Dakota", "county": "089_McPherson", "type": "TCI", "mean": -1.0}, {"date": "2018-01-07 00:00:00", "centroid_lon": -97.61019616770017, "centroid_lat": 44.02195241363737, "state": "46_South Dakota", "county": "097_Miner", "type": "TCI", "mean": -1.0}, {"date": "2018-01-07 00:00:00", "centroid_lon": -96.79147194499708, "centroid_lat": 43.67415647865303, "state": "46_South Dakota", "county": "099_Minnehaha", "type": "TCI", "mean": -1.0}, {"date": "2018-01-07 00:00:00", "centroid_lon": -97.14867176736243, "centroid_lat": 43.31089407750369, "state": "46_South Dakota", "county": "125_Turner", "type": "TCI", "mean": -1.0}, {"date": "2018-01-07 00:00:00", "centroid_lon": -99.95722927109628, "centroid_lat": 45.064513792049404, "state": "46_South Dakota", "county": "107_Potter", "type": "TCI", "mean": -1.0}, {"date": "2018-01-07 00:00:00", "centroid_lon": -103.5275291219149, "centroid_lat": 43.239374122145925, "state": "46_South Dakota", "county": "047_Fall River", "type": "TCI", "mean": -1.0}, {"date": "2018-01-07 00:00:00", "centroid_lon": -101.66402571860846, "centroid_lat": 43.194990863408734, "state": "46_South Dakota", "county": "007_Bennett", "type": "TCI", "mean": -1.0}, {"date": "2018-01-07 00:00:00", "centroid_lon": -99.99600977757268, "centroid_lat": 44.38901941636333, "state": "46_South Dakota", "county": "065_Hughes", "type": "TCI", "mean": -1.0}, {"date": "2018-01-07 00:00:00", "centroid_lon": -100.03153509337895, "centroid_lat": 45.42994287707637, "state": "46_South Dakota", "county": "129_Walworth", "type": "TCI", "mean": -1.0}, {"date": "2018-01-07 00:00:00", "centroid_lon": -96.76768230031786, "centroid_lat": 45.17192593132295, "state": "46_South Dakota", "county": "051_Grant", "type": "TCI", "mean": -1.0}, {"date": "2018-01-07 00:00:00", "centroid_lon": -99.21532081342114, "centroid_lat": 45.4187890485817, "state": "46_South Dakota", "county": "045_Edmunds", "type": "TCI", "mean": -1.0}, {"date": "2018-01-07 00:00:00", "centroid_lon": -98.36607791961576, "centroid_lat": 43.386918715138606, "state": "46_South Dakota", "county": "043_Douglas", "type": "TCI", "mean": -1.0}, {"date": "2018-01-07 00:00:00", "centroid_lon": -97.18831893124346, "centroid_lat": 44.6737604880608, "state": "46_South Dakota", "county": "057_Hamlin", "type": "TCI", "mean": -1.0}, {"date": "2018-01-07 00:00:00", "centroid_lon": -97.59864244403873, "centroid_lat": 45.758559632332634, "state": "46_South Dakota", "county": "091_Marshall", "type": "TCI", "mean": -1.0}, {"date": "2018-01-07 00:00:00", "centroid_lon": -102.82380202568685, "centroid_lat": 44.003731910822246, "state": "46_South Dakota", "county": "103_Pennington", "type": "TCI", "mean": -1.0}, {"date": "2018-01-07 00:00:00", "centroid_lon": -97.78728453214326, "centroid_lat": 43.67481695203359, "state": "46_South Dakota", "county": "061_Hanson", "type": "TCI", "mean": -1.0}, {"date": "2018-01-07 00:00:00", "centroid_lon": -98.34620254304657, "centroid_lat": 44.93802369631338, "state": "46_South Dakota", "county": "115_Spink", "type": "TCI", "mean": -1.0}, {"date": "2018-01-07 00:00:00", "centroid_lon": -97.60742178809157, "centroid_lat": 45.36714609109672, "state": "46_South Dakota", "county": "037_Day", "type": "TCI", "mean": -1.0}, {"date": "2018-01-07 00:00:00", "centroid_lon": -96.97564573526788, "centroid_lat": 42.914681675275936, "state": "46_South Dakota", "county": "027_Clay", "type": "TCI", "mean": -1.0}, {"date": "2018-01-07 00:00:00", "centroid_lon": -97.39476433703665, "centroid_lat": 43.00897405385491, "state": "46_South Dakota", "county": "135_Yankton", "type": "TCI", "mean": -1.0}, {"date": "2018-01-07 00:00:00", "centroid_lon": -103.45153283710599, "centroid_lat": 43.67763220714407, "state": "46_South Dakota", "county": "033_Custer", "type": "TCI", "mean": -1.0}, {"date": "2018-01-07 00:00:00", "centroid_lon": -101.19690783781635, "centroid_lat": 45.708608799709964, "state": "46_South Dakota", "county": "031_Corson", "type": "TCI", "mean": -1.0}, {"date": "2018-01-07 00:00:00", "centroid_lon": -97.18862733875162, "centroid_lat": 44.97785072841515, "state": "46_South Dakota", "county": "029_Codington", "type": "TCI", "mean": -1.0}, {"date": "2018-01-07 00:00:00", "centroid_lon": -97.72950099021678, "centroid_lat": 44.858240661767596, "state": "46_South Dakota", "county": "025_Clark", "type": "TCI", "mean": -1.0}, {"date": "2018-01-07 00:00:00", "centroid_lon": -98.35159798394612, "centroid_lat": 45.58979072155305, "state": "46_South Dakota", "county": "013_Brown", "type": "TCI", "mean": -1.0}, {"date": "2018-01-07 00:00:00", "centroid_lon": -99.20483202090429, "centroid_lat": 44.076287843639435, "state": "46_South Dakota", "county": "017_Buffalo", "type": "TCI", "mean": -1.0}, {"date": "2018-01-07 00:00:00", "centroid_lon": -99.48705852270213, "centroid_lat": 44.54730051578737, "state": "46_South Dakota", "county": "069_Hyde", "type": "TCI", "mean": -1.0}, {"date": "2018-01-07 00:00:00", "centroid_lon": -99.18561069418489, "centroid_lat": 43.19241631140002, "state": "46_South Dakota", "county": "053_Gregory", "type": "TCI", "mean": -1.0}, {"date": "2018-01-07 00:00:00", "centroid_lon": -102.55164330570923, "centroid_lat": 43.33554852390855, "state": "46_South Dakota", "county": "102_Oglala Lakota", "type": "TCI", "mean": -1.0}, {"date": "2018-01-07 00:00:00", "centroid_lon": -96.72176973754625, "centroid_lat": 43.27892777703191, "state": "46_South Dakota", "county": "083_Lincoln", "type": "TCI", "mean": -1.0}, {"date": "2018-01-07 00:00:00", "centroid_lon": -103.79228791697399, "centroid_lat": 44.358632666732326, "state": "46_South Dakota", "county": "081_Lawrence", "type": "TCI", "mean": -1.0}, {"date": "2018-01-07 00:00:00", "centroid_lon": -103.50792825383556, "centroid_lat": 44.905772075563014, "state": "46_South Dakota", "county": "019_Butte", "type": "TCI", "mean": -1.0}, {"date": "2018-01-07 00:00:00", "centroid_lon": -100.13223213010104, "centroid_lat": 44.715569568706975, "state": "46_South Dakota", "county": "119_Sully", "type": "TCI", "mean": -1.0}, {"date": "2018-01-07 00:00:00", "centroid_lon": -96.67088887513418, "centroid_lat": 44.02196925865204, "state": "46_South Dakota", "county": "101_Moody", "type": "TCI", "mean": -1.0}, {"date": "2018-01-07 00:00:00", "centroid_lon": -101.66579965836391, "centroid_lat": 44.98041409108016, "state": "46_South Dakota", "county": "137_Ziebach", "type": "TCI", "mean": -1.0}, {"date": "2018-01-07 00:00:00", "centroid_lon": -100.05161197597026, "centroid_lat": 45.771172194625045, "state": "46_South Dakota", "county": "021_Campbell", "type": "TCI", "mean": -1.0}, {"date": "2018-01-07 00:00:00", "centroid_lon": -102.47569304120196, "centroid_lat": 45.490467526985974, "state": "46_South Dakota", "county": "105_Perkins", "type": "TCI", "mean": -1.0}]