[{"date": "2018-01-07 00:00:00", "centroid_lon": -80.00301852047693, "centroid_lat": 39.1329500917019, "state": "54_West Virginia", "county": "001_Barbour", "type": "TCI", "mean": -1.0}, {"date": "2018-01-07 00:00:00", "centroid_lon": -81.71120723636898, "centroid_lat": 38.022989723255264, "state": "54_West Virginia", "county": "005_Boone", "type": "TCI", "mean": -1.0}, {"date": "2018-01-07 00:00:00", "centroid_lon": -80.85705728427568, "centroid_lat": 38.9240487175398, "state": "54_West Virginia", "county": "021_Gilmer", "type": "TCI", "mean": -1.0}, {"date": "2018-01-07 00:00:00", "centroid_lon": -81.52809332130302, "centroid_lat": 38.3365686365469, "state": "54_West Virginia", "county": "039_Kanawha", "type": "TCI", "mean": -1.0}, {"date": "2018-01-07 00:00:00", "centroid_lon": -81.93533022655198, "centroid_lat": 37.83153304061449, "state": "54_West Virginia", "county": "045_Logan", "type": "TCI", "mean": -1.0}, {"date": "2018-01-07 00:00:00", "centroid_lon": -81.6536062130603, "centroid_lat": 37.37845590595064, "state": "54_West Virginia", "county": "047_McDowell", "type": "TCI", "mean": -1.0}, {"date": "2018-01-07 00:00:00", "centroid_lon": -80.55049861699618, "centroid_lat": 37.56038407853506, "state": "54_West Virginia", "county": "063_Monroe", "type": "TCI", "mean": -1.0}, {"date": "2018-01-07 00:00:00", "centroid_lon": -80.79934457632176, "centroid_lat": 38.29169364170349, "state": "54_West Virginia", "county": "067_Nicholas", "type": "TCI", "mean": -1.0}, {"date": "2018-01-07 00:00:00", "centroid_lon": -81.34835068225243, "centroid_lat": 38.714023368172576, "state": "54_West Virginia", "county": "087_Roane", "type": "TCI", "mean": -1.0}, {"date": "2018-01-07 00:00:00", "centroid_lon": -81.51503289160593, "centroid_lat": 39.211165199098375, "state": "54_West Virginia", "county": "107_Wood", "type": "TCI", "mean": -1.0}, {"date": "2018-01-07 00:00:00", "centroid_lon": -81.11757809765486, "centroid_lat": 38.84453226638231, "state": "54_West Virginia", "county": "013_Calhoun", "type": "TCI", "mean": -1.0}, {"date": "2018-01-07 00:00:00", "centroid_lon": -80.7069715765703, "centroid_lat": 39.26917418647822, "state": "54_West Virginia", "county": "017_Doddridge", "type": "TCI", "mean": -1.0}, {"date": "2018-01-07 00:00:00", "centroid_lon": -81.08115811625689, "centroid_lat": 38.02877295360429, "state": "54_West Virginia", "county": "019_Fayette", "type": "TCI", "mean": -1.0}, {"date": "2018-01-07 00:00:00", "centroid_lon": -79.19558582672973, "centroid_lat": 39.105144193167526, "state": "54_West Virginia", "county": "023_Grant", "type": "TCI", "mean": -1.0}, {"date": "2018-01-07 00:00:00", "centroid_lon": -78.61411362508656, "centroid_lat": 39.31707445859131, "state": "54_West Virginia", "county": "027_Hampshire", "type": "TCI", "mean": -1.0}, {"date": "2018-01-07 00:00:00", "centroid_lon": -80.37985599386624, "centroid_lat": 39.28353096203432, "state": "54_West Virginia", "county": "033_Harrison", "type": "TCI", "mean": -1.0}, {"date": "2018-01-07 00:00:00", "centroid_lon": -77.86279698874573, "centroid_lat": 39.30757780182347, "state": "54_West Virginia", "county": "037_Jefferson", "type": "TCI", "mean": -1.0}, {"date": "2018-01-07 00:00:00", "centroid_lon": -82.07039115796003, "centroid_lat": 38.175349007822696, "state": "54_West Virginia", "county": "043_Lincoln", "type": "TCI", "mean": -1.0}, {"date": "2018-01-07 00:00:00", "centroid_lon": -78.25779500257538, "centroid_lat": 39.56044005886784, "state": "54_West Virginia", "county": "065_Morgan", "type": "TCI", "mean": -1.0}, {"date": "2018-01-07 00:00:00", "centroid_lon": -79.35089252640533, "centroid_lat": 38.68074812184643, "state": "54_West Virginia", "county": "071_Pendleton", "type": "TCI", "mean": -1.0}, {"date": "2018-01-07 00:00:00", "centroid_lon": -81.24865057778747, "centroid_lat": 37.771358934087814, "state": "54_West Virginia", "county": "081_Raleigh", "type": "TCI", "mean": -1.0}, {"date": "2018-01-07 00:00:00", "centroid_lon": -79.56498524121173, "centroid_lat": 39.113592833497236, "state": "54_West Virginia", "county": "093_Tucker", "type": "TCI", "mean": -1.0}, {"date": "2018-01-07 00:00:00", "centroid_lon": -80.88483878572029, "centroid_lat": 39.46527551155361, "state": "54_West Virginia", "county": "095_Tyler", "type": "TCI", "mean": -1.0}, {"date": "2018-01-07 00:00:00", "centroid_lon": -81.54919609856954, "centroid_lat": 37.609608606241075, "state": "54_West Virginia", "county": "109_Wyoming", "type": "TCI", "mean": -1.0}, {"date": "2018-01-07 00:00:00", "centroid_lon": -80.45298795186574, "centroid_lat": 37.94692633497874, "state": "54_West Virginia", "county": "025_Greenbrier", "type": "TCI", "mean": -1.0}, {"date": "2018-01-07 00:00:00", "centroid_lon": -79.8757883557112, "centroid_lat": 38.77475362460385, "state": "54_West Virginia", "county": "083_Randolph", "type": "TCI", "mean": -1.0}, {"date": "2018-01-07 00:00:00", "centroid_lon": -82.13469117106274, "centroid_lat": 37.726416771791065, "state": "54_West Virginia", "county": "059_Mingo", "type": "TCI", "mean": -1.0}, {"date": "2018-01-07 00:00:00", "centroid_lon": -80.71925218802426, "centroid_lat": 38.69985460218358, "state": "54_West Virginia", "county": "007_Braxton", "type": "TCI", "mean": -1.0}, {"date": "2018-01-07 00:00:00", "centroid_lon": -82.42696105484528, "centroid_lat": 38.14594654754151, "state": "54_West Virginia", "county": "099_Wayne", "type": "TCI", "mean": -1.0}, {"date": "2018-01-07 00:00:00", "centroid_lon": -78.85794895166973, "centroid_lat": 39.00753469117713, "state": "54_West Virginia", "county": "031_Hardy", "type": "TCI", "mean": -1.0}, {"date": "2018-01-07 00:00:00", "centroid_lon": -78.9438193741414, "centroid_lat": 39.41467204130156, "state": "54_West Virginia", "county": "057_Mineral", "type": "TCI", "mean": -1.0}, {"date": "2018-01-07 00:00:00", "centroid_lon": -81.0629795607957, "centroid_lat": 39.178257961347356, "state": "54_West Virginia", "county": "085_Ritchie", "type": "TCI", "mean": -1.0}, {"date": "2018-01-07 00:00:00", "centroid_lon": -78.02751272648278, "centroid_lat": 39.464065755093166, "state": "54_West Virginia", "county": "003_Berkeley", "type": "TCI", "mean": -1.0}, {"date": "2018-01-07 00:00:00", "centroid_lon": -80.50217410707702, "centroid_lat": 38.99586654615251, "state": "54_West Virginia", "county": "041_Lewis", "type": "TCI", "mean": -1.0}, {"date": "2018-01-07 00:00:00", "centroid_lon": -82.24171158128883, "centroid_lat": 38.42030494746306, "state": "54_West Virginia", "county": "011_Cabell", "type": "TCI", "mean": -1.0}, {"date": "2018-01-07 00:00:00", "centroid_lon": -80.24338858303129, "centroid_lat": 39.510000584203596, "state": "54_West Virginia", "county": "049_Marion", "type": "TCI", "mean": -1.0}, {"date": "2018-01-07 00:00:00", "centroid_lon": -81.16060931568016, "centroid_lat": 39.37095425339742, "state": "54_West Virginia", "county": "073_Pleasants", "type": "TCI", "mean": -1.0}, {"date": "2018-01-07 00:00:00", "centroid_lon": -81.07507420084185, "centroid_lat": 38.462523095801025, "state": "54_West Virginia", "county": "015_Clay", "type": "TCI", "mean": -1.0}, {"date": "2018-01-07 00:00:00", "centroid_lon": -80.04655650681389, "centroid_lat": 39.63032134864524, "state": "54_West Virginia", "county": "061_Monongalia", "type": "TCI", "mean": -1.0}, {"date": "2018-01-07 00:00:00", "centroid_lon": -80.61891678345728, "centroid_lat": 40.09694844943343, "state": "54_West Virginia", "county": "069_Ohio", "type": "TCI", "mean": -1.0}, {"date": "2018-01-07 00:00:00", "centroid_lon": -81.11143791110497, "centroid_lat": 37.40551198023807, "state": "54_West Virginia", "county": "055_Mercer", "type": "TCI", "mean": -1.0}, {"date": "2018-01-07 00:00:00", "centroid_lon": -81.67480250322771, "centroid_lat": 38.83448426304084, "state": "54_West Virginia", "county": "035_Jackson", "type": "TCI", "mean": -1.0}, {"date": "2018-01-07 00:00:00", "centroid_lon": -80.42186956133536, "centroid_lat": 38.494702032677125, "state": "54_West Virginia", "county": "101_Webster", "type": "TCI", "mean": -1.0}, {"date": "2018-01-07 00:00:00", "centroid_lon": -80.23344085794241, "centroid_lat": 38.89784446135895, "state": "54_West Virginia", "county": "097_Upshur", "type": "TCI", "mean": -1.0}, {"date": "2018-01-07 00:00:00", "centroid_lon": -80.85856067514828, "centroid_lat": 37.65585567005372, "state": "54_West Virginia", "county": "089_Summers", "type": "TCI", "mean": -1.0}, {"date": "2018-01-07 00:00:00", "centroid_lon": -81.90899114146231, "centroid_lat": 38.50861836799539, "state": "54_West Virginia", "county": "079_Putnam", "type": "TCI", "mean": -1.0}, {"date": "2018-01-07 00:00:00", "centroid_lon": -80.66340416845864, "centroid_lat": 39.86059886120607, "state": "54_West Virginia", "county": "051_Marshall", "type": "TCI", "mean": -1.0}, {"date": "2018-01-07 00:00:00", "centroid_lon": -79.6681617651069, "centroid_lat": 39.46932615166726, "state": "54_West Virginia", "county": "077_Preston", "type": "TCI", "mean": -1.0}, {"date": "2018-01-07 00:00:00", "centroid_lon": -82.02656336987266, "centroid_lat": 38.76972106992034, "state": "54_West Virginia", "county": "053_Mason", "type": "TCI", "mean": -1.0}, {"date": "2018-01-07 00:00:00", "centroid_lon": -80.5738998135609, "centroid_lat": 40.52186152733723, "state": "54_West Virginia", "county": "029_Hancock", "type": "TCI", "mean": -1.0}, {"date": "2018-01-07 00:00:00", "centroid_lon": -80.5764521299657, "centroid_lat": 40.27386886575438, "state": "54_West Virginia", "county": "009_Brooke", "type": "TCI", "mean": -1.0}, {"date": "2018-01-07 00:00:00", "centroid_lon": -81.37868924801536, "centroid_lat": 39.02244686589949, "state": "54_West Virginia", "county": "105_Wirt", "type": "TCI", "mean": -1.0}, {"date": "2018-01-07 00:00:00", "centroid_lon": -80.6391141057579, "centroid_lat": 39.60528121404711, "state": "54_West Virginia", "county": "103_Wetzel", "type": "TCI", "mean": -1.0}, {"date": "2018-01-07 00:00:00", "centroid_lon": -80.04618853706673, "centroid_lat": 39.33598007900673, "state": "54_West Virginia", "county": "091_Taylor", "type": "TCI", "mean": -1.0}, {"date": "2018-01-07 00:00:00", "centroid_lon": -80.00778199624176, "centroid_lat": 38.331798617393865, "state": "54_West Virginia", "county": "075_Pocahontas", "type": "TCI", "mean": -1.0}]