{"09": [{"date": "2018-12-31 00:00:00", "centroid_lon": -72.93207761888496, "centroid_lat": 41.41047804821462, "state": "09_Connecticut", "county": "009_New Haven", "type": "tasmin", "mean": 277.18720063709077}, {"date": "2018-12-31 00:00:00", "centroid_lon": -73.38938077097018, "centroid_lat": 41.27079518114231, "state": "09_Connecticut", "county": "001_Fairfield", "type": "tasmin", "mean": 274.20786394391746}, {"date": "2018-12-31 00:00:00", "centroid_lon": -72.53514427955908, "centroid_lat": 41.463187666578804, "state": "09_Connecticut", "county": "007_Middlesex", "type": "tasmin", "mean": 274.1931849888393}, {"date": "2018-12-31 00:00:00", "centroid_lon": -72.10147371348704, "centroid_lat": 41.48661392494672, "state": "09_Connecticut", "county": "011_New London", "type": "tasmin", "mean": 271.73365711030505}, {"date": "2018-12-31 00:00:00", "centroid_lon": -73.2453324637551, "centroid_lat": 41.7924807279555, "state": "09_Connecticut", "county": "005_Litchfield", "type": "tasmin", "mean": 272.9554772755457}, {"date": "2018-12-31 00:00:00", "centroid_lon": -72.33647701640967, "centroid_lat": 41.85504180401771, "state": "09_Connecticut", "county": "013_Tolland", "type": "tasmin", "mean": 272.41567557198664}, {"date": "2018-12-31 00:00:00", "centroid_lon": -71.9874389810461, "centroid_lat": 41.830019602874, "state": "09_Connecticut", "county": "015_Windham", "type": "tasmin", "mean": 273.1120910644531}, {"date": "2018-12-31 00:00:00", "centroid_lon": -72.7328726884709, "centroid_lat": 41.80640591690197, "state": "09_Connecticut", "county": "003_Hartford", "type": "tasmin", "mean": 276.1833949497768}], "23": [{"date": "2018-12-31 00:00:00", "centroid_lon": -69.1685693088215, "centroid_lat": 44.14104239320981, "state": "23_Maine", "county": "013_Knox", "type": "tasmin", "mean": 270.6136590866816}, {"date": "2018-12-31 00:00:00", "centroid_lon": -69.54350467475419, "centroid_lat": 44.066382526077106, "state": "23_Maine", "county": "015_Lincoln", "type": "tasmin", "mean": 268.8902029854911}, {"date": "2018-12-31 00:00:00", "centroid_lon": -69.85456646123328, "centroid_lat": 43.95977198458046, "state": "23_Maine", "county": "023_Sagadahoc", "type": "tasmin", "mean": 269.3240966796875}, {"date": "2018-12-31 00:00:00", "centroid_lon": -70.71437648184487, "centroid_lat": 43.47821627618549, "state": "23_Maine", "county": "031_York", "type": "tasmin", "mean": 268.94708077566963}, {"date": "2018-12-31 00:00:00", "centroid_lon": -70.44400817507413, "centroid_lat": 44.97403259668406, "state": "23_Maine", "county": "007_Franklin", "type": "tasmin", "mean": 269.2950193260898}, {"date": "2018-12-31 00:00:00", "centroid_lon": -68.59890428205432, "centroid_lat": 46.658916160858595, "state": "23_Maine", "county": "003_Aroostook", "type": "tasmin", "mean": 269.4609845314191}, {"date": "2018-12-31 00:00:00", "centroid_lon": -69.95890400955348, "centroid_lat": 45.51390922318789, "state": "23_Maine", "county": "025_Somerset", "type": "tasmin", "mean": 269.02848859514506}, {"date": "2018-12-31 00:00:00", "centroid_lon": -69.14540579832816, "centroid_lat": 44.502751923557284, "state": "23_Maine", "county": "027_Waldo", "type": "tasmin", "mean": 269.52583530970986}, {"date": "2018-12-31 00:00:00", "centroid_lon": -69.76733332179862, "centroid_lat": 44.40911176793328, "state": "23_Maine", "county": "011_Kennebec", "type": "tasmin", "mean": 269.3093152727399}, {"date": "2018-12-31 00:00:00", "centroid_lon": -68.6494587213623, "centroid_lat": 45.40063185337624, "state": "23_Maine", "county": "019_Penobscot", "type": "tasmin", "mean": 269.97427011465095}, {"date": "2018-12-31 00:00:00", "centroid_lon": -69.2845937025007, "centroid_lat": 45.83734230475155, "state": "23_Maine", "county": "021_Piscataquis", "type": "tasmin", "mean": 269.51314137394263}, {"date": "2018-12-31 00:00:00", "centroid_lon": -68.35859841983748, "centroid_lat": 44.66419124449295, "state": "23_Maine", "county": "009_Hancock", "type": "tasmin", "mean": 270.569091796875}, {"date": "2018-12-31 00:00:00", "centroid_lon": -70.39879000829218, "centroid_lat": 43.84641178596215, "state": "23_Maine", "county": "005_Cumberland", "type": "tasmin", "mean": 268.8957846505301}, {"date": "2018-12-31 00:00:00", "centroid_lon": -67.62879048433543, "centroid_lat": 45.03063661353635, "state": "23_Maine", "county": "029_Washington", "type": "tasmin", "mean": 271.4590319958362}, {"date": "2018-12-31 00:00:00", "centroid_lon": -70.2064712102794, "centroid_lat": 44.16579101934898, "state": "23_Maine", "county": "001_Androscoggin", "type": "tasmin", "mean": 269.27513602120536}, {"date": "2018-12-31 00:00:00", "centroid_lon": -70.75660576738426, "centroid_lat": 44.49987253844624, "state": "23_Maine", "county": "017_Oxford", "type": "tasmin", "mean": 268.17814293686223}], "25": [{"date": "2018-12-31 00:00:00", "centroid_lon": -70.29149042162084, "centroid_lat": 41.724178611977166, "state": "25_Massachusetts", "county": "001_Barnstable", "type": "tasmin", "mean": 271.4333990187872}, {"date": "2018-12-31 00:00:00", "centroid_lon": -72.63158231245845, "centroid_lat": 42.13508895524805, "state": "25_Massachusetts", "county": "013_Hampden", "type": "tasmin", "mean": 274.85967799595426}, {"date": "2018-12-31 00:00:00", "centroid_lon": -71.07087430373532, "centroid_lat": 42.33358904356942, "state": "25_Massachusetts", "county": "025_Suffolk", "type": "tasmin", "mean": 273.19578334263394}, {"date": "2018-12-31 00:00:00", "centroid_lon": -70.65008761552205, "centroid_lat": 41.39608468988456, "state": "25_Massachusetts", "county": "007_Dukes", "type": "tasmin", "mean": 268.5184326171875}, {"date": "2018-12-31 00:00:00", "centroid_lon": -71.39179841026245, "centroid_lat": 42.485574571680274, "state": "25_Massachusetts", "county": "017_Middlesex", "type": "tasmin", "mean": 271.3755599733383}, {"date": "2018-12-31 00:00:00", "centroid_lon": -71.11437747183895, "centroid_lat": 41.79716381217753, "state": "25_Massachusetts", "county": "005_Bristol", "type": "tasmin", "mean": 271.84100516183037}, {"date": "2018-12-31 00:00:00", "centroid_lon": -70.95196700100874, "centroid_lat": 42.67309223273291, "state": "25_Massachusetts", "county": "009_Essex", "type": "tasmin", "mean": 271.07331194196433}, {"date": "2018-12-31 00:00:00", "centroid_lon": -73.20634678354459, "centroid_lat": 42.370699260324905, "state": "25_Massachusetts", "county": "003_Berkshire", "type": "tasmin", "mean": 272.18116687593005}, {"date": "2018-12-31 00:00:00", "centroid_lon": -72.59183801303035, "centroid_lat": 42.58309255309413, "state": "25_Massachusetts", "county": "011_Franklin", "type": "tasmin", "mean": 274.17428900271045}, {"date": "2018-12-31 00:00:00", "centroid_lon": -71.21110420820153, "centroid_lat": 42.16068851261101, "state": "25_Massachusetts", "county": "021_Norfolk", "type": "tasmin", "mean": 272.7776402064732}, {"date": "2018-12-31 00:00:00", "centroid_lon": -70.81141076389231, "centroid_lat": 41.95116261597028, "state": "25_Massachusetts", "county": "023_Plymouth", "type": "tasmin", "mean": 272.79909966916455}, {"date": "2018-12-31 00:00:00", "centroid_lon": -72.663785834447, "centroid_lat": 42.34015350159346, "state": "25_Massachusetts", "county": "015_Hampshire", "type": "tasmin", "mean": 274.47255452473956}, {"date": "2018-12-31 00:00:00", "centroid_lon": -71.90774264600626, "centroid_lat": 42.35142184415478, "state": "25_Massachusetts", "county": "027_Worcester", "type": "tasmin", "mean": 273.3811837332589}], "33": [{"date": "2018-12-31 00:00:00", "centroid_lon": -71.30563479998189, "centroid_lat": 44.689570261572, "state": "33_New Hampshire", "county": "007_Coos", "type": "tasmin", "mean": 268.5502657209124}, {"date": "2018-12-31 00:00:00", "centroid_lon": -71.12536673387804, "centroid_lat": 42.98755540207759, "state": "33_New Hampshire", "county": "015_Rockingham", "type": "tasmin", "mean": 268.7252396564095}, {"date": "2018-12-31 00:00:00", "centroid_lon": -71.02886799741374, "centroid_lat": 43.296956999975905, "state": "33_New Hampshire", "county": "017_Strafford", "type": "tasmin", "mean": 268.7005336216518}, {"date": "2018-12-31 00:00:00", "centroid_lon": -71.20309837460373, "centroid_lat": 43.87381081161626, "state": "33_New Hampshire", "county": "003_Carroll", "type": "tasmin", "mean": 268.20693533761164}, {"date": "2018-12-31 00:00:00", "centroid_lon": -71.68023961553051, "centroid_lat": 43.29746511957457, "state": "33_New Hampshire", "county": "013_Merrimack", "type": "tasmin", "mean": 270.5652049231151}, {"date": "2018-12-31 00:00:00", "centroid_lon": -71.42266290893869, "centroid_lat": 43.51790463348557, "state": "33_New Hampshire", "county": "001_Belknap", "type": "tasmin", "mean": 268.83544485909596}, {"date": "2018-12-31 00:00:00", "centroid_lon": -72.25118842778647, "centroid_lat": 42.91937813270929, "state": "33_New Hampshire", "county": "005_Cheshire", "type": "tasmin", "mean": 273.25020577566966}, {"date": "2018-12-31 00:00:00", "centroid_lon": -71.7160846564973, "centroid_lat": 42.91533315606717, "state": "33_New Hampshire", "county": "011_Hillsborough", "type": "tasmin", "mean": 270.95065619021045}, {"date": "2018-12-31 00:00:00", "centroid_lon": -72.22217146106603, "centroid_lat": 43.361426408632404, "state": "33_New Hampshire", "county": "019_Sullivan", "type": "tasmin", "mean": 271.6254708426339}, {"date": "2018-12-31 00:00:00", "centroid_lon": -71.82074759959038, "centroid_lat": 43.94066039232834, "state": "33_New Hampshire", "county": "009_Grafton", "type": "tasmin", "mean": 268.46213358390236}], "44": [{"date": "2018-12-31 00:00:00", "centroid_lon": -71.62254153850535, "centroid_lat": 41.46972321248195, "state": "44_Rhode Island", "county": "009_Washington", "type": "tasmin", "mean": 274.56299264090404}, {"date": "2018-12-31 00:00:00", "centroid_lon": -71.57999402630503, "centroid_lat": 41.87214104296169, "state": "44_Rhode Island", "county": "007_Providence", "type": "tasmin", "mean": 273.2774832589286}, {"date": "2018-12-31 00:00:00", "centroid_lon": -71.59307644720491, "centroid_lat": 41.672180981458794, "state": "44_Rhode Island", "county": "003_Kent", "type": "tasmin", "mean": 274.78029087611606}, {"date": "2018-12-31 00:00:00", "centroid_lon": -71.23679569247565, "centroid_lat": 41.556386859020776, "state": "44_Rhode Island", "county": "005_Newport", "type": "tasmin", "mean": 272.5836966378348}], "50": [{"date": "2018-12-31 00:00:00", "centroid_lon": -72.37680635541271, "centroid_lat": 44.00565784489038, "state": "50_Vermont", "county": "017_Orange", "type": "tasmin", "mean": 269.9284892179528}, {"date": "2018-12-31 00:00:00", "centroid_lon": -72.58621402043903, "centroid_lat": 43.58000424177945, "state": "50_Vermont", "county": "027_Windsor", "type": "tasmin", "mean": 271.0896889822824}, {"date": "2018-12-31 00:00:00", "centroid_lon": -72.71379547834168, "centroid_lat": 42.9906105107739, "state": "50_Vermont", "county": "025_Windham", "type": "tasmin", "mean": 272.8366574657207}, {"date": "2018-12-31 00:00:00", "centroid_lon": -71.73623485599732, "centroid_lat": 44.72798413446471, "state": "50_Vermont", "county": "009_Essex", "type": "tasmin", "mean": 269.3003162202381}, {"date": "2018-12-31 00:00:00", "centroid_lon": -72.24375515578149, "centroid_lat": 44.828796927551835, "state": "50_Vermont", "county": "019_Orleans", "type": "tasmin", "mean": 267.22309221540183}, {"date": "2018-12-31 00:00:00", "centroid_lon": -73.09296955605637, "centroid_lat": 43.03542793839849, "state": "50_Vermont", "county": "003_Bennington", "type": "tasmin", "mean": 271.3833605707908}, {"date": "2018-12-31 00:00:00", "centroid_lon": -73.08091305868045, "centroid_lat": 44.46100167072981, "state": "50_Vermont", "county": "007_Chittenden", "type": "tasmin", "mean": 268.9954485212054}, {"date": "2018-12-31 00:00:00", "centroid_lon": -72.91200544776008, "centroid_lat": 44.8574942907691, "state": "50_Vermont", "county": "011_Franklin", "type": "tasmin", "mean": 268.6172979445684}, {"date": "2018-12-31 00:00:00", "centroid_lon": -72.64140294845757, "centroid_lat": 44.60574115034145, "state": "50_Vermont", "county": "015_Lamoille", "type": "tasmin", "mean": 265.1206839425223}, {"date": "2018-12-31 00:00:00", "centroid_lon": -72.61494552939516, "centroid_lat": 44.27344615648013, "state": "50_Vermont", "county": "023_Washington", "type": "tasmin", "mean": 268.4235590720663}, {"date": "2018-12-31 00:00:00", "centroid_lon": -73.14081598764324, "centroid_lat": 44.03090367559913, "state": "50_Vermont", "county": "001_Addison", "type": "tasmin", "mean": 269.3590894426618}, {"date": "2018-12-31 00:00:00", "centroid_lon": -73.03661801178546, "centroid_lat": 43.580075628732075, "state": "50_Vermont", "county": "021_Rutland", "type": "tasmin", "mean": 270.55017525809154}, {"date": "2018-12-31 00:00:00", "centroid_lon": -72.10221130175536, "centroid_lat": 44.46468703796527, "state": "50_Vermont", "county": "005_Caledonia", "type": "tasmin", "mean": 268.92607521524235}]}