[{"date": "2019-11-05 00:00:00", "centroid_lon": -72.93207761888496, "centroid_lat": 41.41047804821462, "state": "09_Connecticut", "county": "009_New Haven", "type": "tasmax", "mean": 300.5270937965029}, {"date": "2019-11-05 00:00:00", "centroid_lon": -73.38938077097018, "centroid_lat": 41.27079518114231, "state": "09_Connecticut", "county": "001_Fairfield", "type": "tasmax", "mean": 298.1060006277902}, {"date": "2019-11-05 00:00:00", "centroid_lon": -72.53514427955908, "centroid_lat": 41.463187666578804, "state": "09_Connecticut", "county": "007_Middlesex", "type": "tasmax", "mean": 297.7861851283482}, {"date": "2019-11-05 00:00:00", "centroid_lon": -72.10147371348704, "centroid_lat": 41.48661392494672, "state": "09_Connecticut", "county": "011_New London", "type": "tasmax", "mean": 296.2782447451637}, {"date": "2019-11-05 00:00:00", "centroid_lon": -73.2453324637551, "centroid_lat": 41.7924807279555, "state": "09_Connecticut", "county": "005_Litchfield", "type": "tasmax", "mean": 299.14403134300596}, {"date": "2019-11-05 00:00:00", "centroid_lon": -72.33647701640967, "centroid_lat": 41.85504180401771, "state": "09_Connecticut", "county": "013_Tolland", "type": "tasmax", "mean": 296.5594831194196}, {"date": "2019-11-05 00:00:00", "centroid_lon": -71.9874389810461, "centroid_lat": 41.830019602874, "state": "09_Connecticut", "county": "015_Windham", "type": "tasmax", "mean": 297.34967041015625}, {"date": "2019-11-05 00:00:00", "centroid_lon": -72.7328726884709, "centroid_lat": 41.80640591690197, "state": "09_Connecticut", "county": "003_Hartford", "type": "tasmax", "mean": 300.78145926339283}]