[{"date": "2019-02-12 00:00:00", "centroid_lon": -72.93207761888496, "centroid_lat": 41.41047804821462, "state": "09_Connecticut", "county": "009_New Haven", "type": "tasmin", "mean": 279.9277721586682}, {"date": "2019-02-12 00:00:00", "centroid_lon": -73.38938077097018, "centroid_lat": 41.27079518114231, "state": "09_Connecticut", "county": "001_Fairfield", "type": "tasmin", "mean": 276.9622061593192}, {"date": "2019-02-12 00:00:00", "centroid_lon": -72.53514427955908, "centroid_lat": 41.463187666578804, "state": "09_Connecticut", "county": "007_Middlesex", "type": "tasmin", "mean": 276.6427699497768}, {"date": "2019-02-12 00:00:00", "centroid_lon": -72.10147371348704, "centroid_lat": 41.48661392494672, "state": "09_Connecticut", "county": "011_New London", "type": "tasmin", "mean": 273.97453090122764}, {"date": "2019-02-12 00:00:00", "centroid_lon": -73.2453324637551, "centroid_lat": 41.7924807279555, "state": "09_Connecticut", "county": "005_Litchfield", "type": "tasmin", "mean": 276.07951427641365}, {"date": "2019-02-12 00:00:00", "centroid_lon": -72.33647701640967, "centroid_lat": 41.85504180401771, "state": "09_Connecticut", "county": "013_Tolland", "type": "tasmin", "mean": 274.5912301199777}, {"date": "2019-02-12 00:00:00", "centroid_lon": -71.9874389810461, "centroid_lat": 41.830019602874, "state": "09_Connecticut", "county": "015_Windham", "type": "tasmin", "mean": 276.0284946986607}, {"date": "2019-02-12 00:00:00", "centroid_lon": -72.7328726884709, "centroid_lat": 41.80640591690197, "state": "09_Connecticut", "county": "003_Hartford", "type": "tasmin", "mean": 278.6898995535715}]