[{"date": "2019-08-06 00:00:00", "centroid_lon": -72.93207761888496, "centroid_lat": 41.41047804821462, "state": "09_Connecticut", "county": "009_New Haven", "type": "pr", "mean": 9.94411086486209e-06}, {"date": "2019-08-06 00:00:00", "centroid_lon": -73.38938077097018, "centroid_lat": 41.27079518114231, "state": "09_Connecticut", "county": "001_Fairfield", "type": "pr", "mean": 1.315925562396712e-05}, {"date": "2019-08-06 00:00:00", "centroid_lon": -72.53514427955908, "centroid_lat": 41.463187666578804, "state": "09_Connecticut", "county": "007_Middlesex", "type": "pr", "mean": 8.635849423756423e-06}, {"date": "2019-08-06 00:00:00", "centroid_lon": -72.10147371348704, "centroid_lat": 41.48661392494672, "state": "09_Connecticut", "county": "011_New London", "type": "pr", "mean": 6.130125387114405e-06}, {"date": "2019-08-06 00:00:00", "centroid_lon": -73.2453324637551, "centroid_lat": 41.7924807279555, "state": "09_Connecticut", "county": "005_Litchfield", "type": "pr", "mean": 1.6642178086349593e-05}, {"date": "2019-08-06 00:00:00", "centroid_lon": -72.33647701640967, "centroid_lat": 41.85504180401771, "state": "09_Connecticut", "county": "013_Tolland", "type": "pr", "mean": 2.545635652495548e-06}, {"date": "2019-08-06 00:00:00", "centroid_lon": -71.9874389810461, "centroid_lat": 41.830019602874, "state": "09_Connecticut", "county": "015_Windham", "type": "pr", "mean": 1.729019101860883e-06}, {"date": "2019-08-06 00:00:00", "centroid_lon": -72.7328726884709, "centroid_lat": 41.80640591690197, "state": "09_Connecticut", "county": "003_Hartford", "type": "pr", "mean": 7.390082568495668e-06}]