[{"date": "2018-09-17 00:00:00", "centroid_lon": -72.93207761888496, "centroid_lat": 41.41047804821462, "state": "09_Connecticut", "county": "009_New Haven", "type": "tasmin", "mean": 294.49525088355654}, {"date": "2018-09-17 00:00:00", "centroid_lon": -73.38938077097018, "centroid_lat": 41.27079518114231, "state": "09_Connecticut", "county": "001_Fairfield", "type": "tasmin", "mean": 290.60740007672996}, {"date": "2018-09-17 00:00:00", "centroid_lon": -72.53514427955908, "centroid_lat": 41.463187666578804, "state": "09_Connecticut", "county": "007_Middlesex", "type": "tasmin", "mean": 291.1689017159598}, {"date": "2018-09-17 00:00:00", "centroid_lon": -72.10147371348704, "centroid_lat": 41.48661392494672, "state": "09_Connecticut", "county": "011_New London", "type": "tasmin", "mean": 288.09815906343005}, {"date": "2018-09-17 00:00:00", "centroid_lon": -73.2453324637551, "centroid_lat": 41.7924807279555, "state": "09_Connecticut", "county": "005_Litchfield", "type": "tasmin", "mean": 290.79336596292165}, {"date": "2018-09-17 00:00:00", "centroid_lon": -72.33647701640967, "centroid_lat": 41.85504180401771, "state": "09_Connecticut", "county": "013_Tolland", "type": "tasmin", "mean": 287.80804443359375}, {"date": "2018-09-17 00:00:00", "centroid_lon": -71.9874389810461, "centroid_lat": 41.830019602874, "state": "09_Connecticut", "county": "015_Windham", "type": "tasmin", "mean": 287.87933785574774}, {"date": "2018-09-17 00:00:00", "centroid_lon": -72.7328726884709, "centroid_lat": 41.80640591690197, "state": "09_Connecticut", "county": "003_Hartford", "type": "tasmin", "mean": 292.64227469308037}]