[{"date": "2018-02-05 00:00:00", "centroid_lon": -72.93207761888496, "centroid_lat": 41.41047804821462, "state": "09_Connecticut", "county": "009_New Haven", "type": "tasmax", "mean": 290.01460484095986}, {"date": "2018-02-05 00:00:00", "centroid_lon": -73.38938077097018, "centroid_lat": 41.27079518114231, "state": "09_Connecticut", "county": "001_Fairfield", "type": "tasmax", "mean": 288.3697945731027}, {"date": "2018-02-05 00:00:00", "centroid_lon": -72.53514427955908, "centroid_lat": 41.463187666578804, "state": "09_Connecticut", "county": "007_Middlesex", "type": "tasmax", "mean": 286.685538155692}, {"date": "2018-02-05 00:00:00", "centroid_lon": -72.10147371348704, "centroid_lat": 41.48661392494672, "state": "09_Connecticut", "county": "011_New London", "type": "tasmax", "mean": 285.69748942057294}, {"date": "2018-02-05 00:00:00", "centroid_lon": -73.2453324637551, "centroid_lat": 41.7924807279555, "state": "09_Connecticut", "county": "005_Litchfield", "type": "tasmax", "mean": 289.85292658730157}, {"date": "2018-02-05 00:00:00", "centroid_lon": -72.33647701640967, "centroid_lat": 41.85504180401771, "state": "09_Connecticut", "county": "013_Tolland", "type": "tasmax", "mean": 286.31199428013394}, {"date": "2018-02-05 00:00:00", "centroid_lon": -71.9874389810461, "centroid_lat": 41.830019602874, "state": "09_Connecticut", "county": "015_Windham", "type": "tasmax", "mean": 287.50977870396207}, {"date": "2018-02-05 00:00:00", "centroid_lon": -72.7328726884709, "centroid_lat": 41.80640591690197, "state": "09_Connecticut", "county": "003_Hartford", "type": "tasmax", "mean": 290.80440848214283}]