[{"date": "2018-09-10 00:00:00", "centroid_lon": -72.93207761888496, "centroid_lat": 41.41047804821462, "state": "09_Connecticut", "county": "009_New Haven", "type": "pr", "mean": 3.4738349789958674e-06}, {"date": "2018-09-10 00:00:00", "centroid_lon": -73.38938077097018, "centroid_lat": 41.27079518114231, "state": "09_Connecticut", "county": "001_Fairfield", "type": "pr", "mean": 1.0015336686462564e-05}, {"date": "2018-09-10 00:00:00", "centroid_lon": -72.53514427955908, "centroid_lat": 41.463187666578804, "state": "09_Connecticut", "county": "007_Middlesex", "type": "pr", "mean": 6.025391842610719e-07}, {"date": "2018-09-10 00:00:00", "centroid_lon": -72.10147371348704, "centroid_lat": 41.48661392494672, "state": "09_Connecticut", "county": "011_New London", "type": "pr", "mean": 7.1668574123794395e-06}, {"date": "2018-09-10 00:00:00", "centroid_lon": -73.2453324637551, "centroid_lat": 41.7924807279555, "state": "09_Connecticut", "county": "005_Litchfield", "type": "pr", "mean": 4.21401090000198e-06}, {"date": "2018-09-10 00:00:00", "centroid_lon": -72.33647701640967, "centroid_lat": 41.85504180401771, "state": "09_Connecticut", "county": "013_Tolland", "type": "pr", "mean": 6.085018431990972e-08}, {"date": "2018-09-10 00:00:00", "centroid_lon": -71.9874389810461, "centroid_lat": 41.830019602874, "state": "09_Connecticut", "county": "015_Windham", "type": "pr", "mean": 2.271069433845696e-06}, {"date": "2018-09-10 00:00:00", "centroid_lon": -72.7328726884709, "centroid_lat": 41.80640591690197, "state": "09_Connecticut", "county": "003_Hartford", "type": "pr", "mean": 1.3794591739367336e-06}]