[{"date": "2018-05-28 00:00:00", "centroid_lon": -69.1685693088215, "centroid_lat": 44.14104239320981, "state": "23_Maine", "county": "013_Knox", "type": "tasmin", "mean": 283.20251464843744}, {"date": "2018-05-28 00:00:00", "centroid_lon": -69.54350467475419, "centroid_lat": 44.066382526077106, "state": "23_Maine", "county": "015_Lincoln", "type": "tasmin", "mean": 281.48650599888396}, {"date": "2018-05-28 00:00:00", "centroid_lon": -69.85456646123328, "centroid_lat": 43.95977198458046, "state": "23_Maine", "county": "023_Sagadahoc", "type": "tasmin", "mean": 281.7168273925781}, {"date": "2018-05-28 00:00:00", "centroid_lon": -70.71437648184487, "centroid_lat": 43.47821627618549, "state": "23_Maine", "county": "031_York", "type": "tasmin", "mean": 280.41727818080363}, {"date": "2018-05-28 00:00:00", "centroid_lon": -70.44400817507413, "centroid_lat": 44.97403259668406, "state": "23_Maine", "county": "007_Franklin", "type": "tasmin", "mean": 282.193058815323}, {"date": "2018-05-28 00:00:00", "centroid_lon": -68.59890428205432, "centroid_lat": 46.658916160858595, "state": "23_Maine", "county": "003_Aroostook", "type": "tasmin", "mean": 280.45801758869385}, {"date": "2018-05-28 00:00:00", "centroid_lon": -69.95890400955348, "centroid_lat": 45.51390922318789, "state": "23_Maine", "county": "025_Somerset", "type": "tasmin", "mean": 281.6043160574776}, {"date": "2018-05-28 00:00:00", "centroid_lon": -69.14540579832816, "centroid_lat": 44.502751923557284, "state": "23_Maine", "county": "027_Waldo", "type": "tasmin", "mean": 281.67554873511904}, {"date": "2018-05-28 00:00:00", "centroid_lon": -69.76733332179862, "centroid_lat": 44.40911176793328, "state": "23_Maine", "county": "011_Kennebec", "type": "tasmin", "mean": 281.92420087541853}, {"date": "2018-05-28 00:00:00", "centroid_lon": -68.6494587213623, "centroid_lat": 45.40063185337624, "state": "23_Maine", "county": "019_Penobscot", "type": "tasmin", "mean": 282.1563086571632}, {"date": "2018-05-28 00:00:00", "centroid_lon": -69.2845937025007, "centroid_lat": 45.83734230475155, "state": "23_Maine", "county": "021_Piscataquis", "type": "tasmin", "mean": 281.7553527373121}, {"date": "2018-05-28 00:00:00", "centroid_lon": -68.35859841983748, "centroid_lat": 44.66419124449295, "state": "23_Maine", "county": "009_Hancock", "type": "tasmin", "mean": 283.2571749005999}, {"date": "2018-05-28 00:00:00", "centroid_lon": -70.39879000829218, "centroid_lat": 43.84641178596215, "state": "23_Maine", "county": "005_Cumberland", "type": "tasmin", "mean": 280.9624917166574}, {"date": "2018-05-28 00:00:00", "centroid_lon": -67.62879048433543, "centroid_lat": 45.03063661353635, "state": "23_Maine", "county": "029_Washington", "type": "tasmin", "mean": 284.2088898040436}, {"date": "2018-05-28 00:00:00", "centroid_lon": -70.2064712102794, "centroid_lat": 44.16579101934898, "state": "23_Maine", "county": "001_Androscoggin", "type": "tasmin", "mean": 281.7319789341518}, {"date": "2018-05-28 00:00:00", "centroid_lon": -70.75660576738426, "centroid_lat": 44.49987253844624, "state": "23_Maine", "county": "017_Oxford", "type": "tasmin", "mean": 280.7563244047619}]