[{"date": "2018-11-12 00:00:00", "centroid_lon": -69.1685693088215, "centroid_lat": 44.14104239320981, "state": "23_Maine", "county": "013_Knox", "type": "pr", "mean": 0.0}, {"date": "2018-11-12 00:00:00", "centroid_lon": -69.54350467475419, "centroid_lat": 44.066382526077106, "state": "23_Maine", "county": "015_Lincoln", "type": "pr", "mean": 0.0}, {"date": "2018-11-12 00:00:00", "centroid_lon": -69.85456646123328, "centroid_lat": 43.95977198458046, "state": "23_Maine", "county": "023_Sagadahoc", "type": "pr", "mean": 1.4272755736653508e-06}, {"date": "2018-11-12 00:00:00", "centroid_lon": -70.71437648184487, "centroid_lat": 43.47821627618549, "state": "23_Maine", "county": "031_York", "type": "pr", "mean": 4.213964322324111e-06}, {"date": "2018-11-12 00:00:00", "centroid_lon": -70.44400817507413, "centroid_lat": 44.97403259668406, "state": "23_Maine", "county": "007_Franklin", "type": "pr", "mean": 7.243131141662804e-07}, {"date": "2018-11-12 00:00:00", "centroid_lon": -68.59890428205432, "centroid_lat": 46.658916160858595, "state": "23_Maine", "county": "003_Aroostook", "type": "pr", "mean": 5.762986693180329e-06}, {"date": "2018-11-12 00:00:00", "centroid_lon": -69.95890400955348, "centroid_lat": 45.51390922318789, "state": "23_Maine", "county": "025_Somerset", "type": "pr", "mean": 8.831890537765374e-07}, {"date": "2018-11-12 00:00:00", "centroid_lon": -69.14540579832816, "centroid_lat": 44.502751923557284, "state": "23_Maine", "county": "027_Waldo", "type": "pr", "mean": 1.9000662207634465e-09}, {"date": "2018-11-12 00:00:00", "centroid_lon": -69.76733332179862, "centroid_lat": 44.40911176793328, "state": "23_Maine", "county": "011_Kennebec", "type": "pr", "mean": 2.1636568498755488e-07}, {"date": "2018-11-12 00:00:00", "centroid_lon": -68.6494587213623, "centroid_lat": 45.40063185337624, "state": "23_Maine", "county": "019_Penobscot", "type": "pr", "mean": 5.835015268615346e-07}, {"date": "2018-11-12 00:00:00", "centroid_lon": -69.2845937025007, "centroid_lat": 45.83734230475155, "state": "23_Maine", "county": "021_Piscataquis", "type": "pr", "mean": 9.15400963464849e-07}, {"date": "2018-11-12 00:00:00", "centroid_lon": -68.35859841983748, "centroid_lat": 44.66419124449295, "state": "23_Maine", "county": "009_Hancock", "type": "pr", "mean": 6.36377857331029e-07}, {"date": "2018-11-12 00:00:00", "centroid_lon": -70.39879000829218, "centroid_lat": 43.84641178596215, "state": "23_Maine", "county": "005_Cumberland", "type": "pr", "mean": 3.3240426254061665e-06}, {"date": "2018-11-12 00:00:00", "centroid_lon": -67.62879048433543, "centroid_lat": 45.03063661353635, "state": "23_Maine", "county": "029_Washington", "type": "pr", "mean": 1.2240431120657236e-06}, {"date": "2018-11-12 00:00:00", "centroid_lon": -70.2064712102794, "centroid_lat": 44.16579101934898, "state": "23_Maine", "county": "001_Androscoggin", "type": "pr", "mean": 1.1360316161049662e-06}, {"date": "2018-11-12 00:00:00", "centroid_lon": -70.75660576738426, "centroid_lat": 44.49987253844624, "state": "23_Maine", "county": "017_Oxford", "type": "pr", "mean": 1.0859357153125542e-06}]