[{"date": "2018-12-17 00:00:00", "centroid_lon": -69.1685693088215, "centroid_lat": 44.14104239320981, "state": "23_Maine", "county": "013_Knox", "type": "tasmax", "mean": 294.1524251302083}, {"date": "2018-12-17 00:00:00", "centroid_lon": -69.54350467475419, "centroid_lat": 44.066382526077106, "state": "23_Maine", "county": "015_Lincoln", "type": "tasmax", "mean": 293.1345982142857}, {"date": "2018-12-17 00:00:00", "centroid_lon": -69.85456646123328, "centroid_lat": 43.95977198458046, "state": "23_Maine", "county": "023_Sagadahoc", "type": "tasmax", "mean": 294.1905255998884}, {"date": "2018-12-17 00:00:00", "centroid_lon": -70.71437648184487, "centroid_lat": 43.47821627618549, "state": "23_Maine", "county": "031_York", "type": "tasmax", "mean": 292.9243512834821}, {"date": "2018-12-17 00:00:00", "centroid_lon": -70.44400817507413, "centroid_lat": 44.97403259668406, "state": "23_Maine", "county": "007_Franklin", "type": "tasmax", "mean": 293.13872521664916}, {"date": "2018-12-17 00:00:00", "centroid_lon": -68.59890428205432, "centroid_lat": 46.658916160858595, "state": "23_Maine", "county": "003_Aroostook", "type": "tasmax", "mean": 291.3377278645833}, {"date": "2018-12-17 00:00:00", "centroid_lon": -69.95890400955348, "centroid_lat": 45.51390922318789, "state": "23_Maine", "county": "025_Somerset", "type": "tasmax", "mean": 292.4160675048828}, {"date": "2018-12-17 00:00:00", "centroid_lon": -69.14540579832816, "centroid_lat": 44.502751923557284, "state": "23_Maine", "county": "027_Waldo", "type": "tasmax", "mean": 292.906000046503}, {"date": "2018-12-17 00:00:00", "centroid_lon": -69.76733332179862, "centroid_lat": 44.40911176793328, "state": "23_Maine", "county": "011_Kennebec", "type": "tasmax", "mean": 293.5166516985212}, {"date": "2018-12-17 00:00:00", "centroid_lon": -68.6494587213623, "centroid_lat": 45.40063185337624, "state": "23_Maine", "county": "019_Penobscot", "type": "tasmax", "mean": 292.8310974913758}, {"date": "2018-12-17 00:00:00", "centroid_lon": -69.2845937025007, "centroid_lat": 45.83734230475155, "state": "23_Maine", "county": "021_Piscataquis", "type": "tasmax", "mean": 292.2495828499471}, {"date": "2018-12-17 00:00:00", "centroid_lon": -68.35859841983748, "centroid_lat": 44.66419124449295, "state": "23_Maine", "county": "009_Hancock", "type": "tasmax", "mean": 292.9120603288923}, {"date": "2018-12-17 00:00:00", "centroid_lon": -70.39879000829218, "centroid_lat": 43.84641178596215, "state": "23_Maine", "county": "005_Cumberland", "type": "tasmax", "mean": 293.63859122140065}, {"date": "2018-12-17 00:00:00", "centroid_lon": -67.62879048433543, "centroid_lat": 45.03063661353635, "state": "23_Maine", "county": "029_Washington", "type": "tasmax", "mean": 293.48131519359544}, {"date": "2018-12-17 00:00:00", "centroid_lon": -70.2064712102794, "centroid_lat": 44.16579101934898, "state": "23_Maine", "county": "001_Androscoggin", "type": "tasmax", "mean": 294.07537667410713}, {"date": "2018-12-17 00:00:00", "centroid_lon": -70.75660576738426, "centroid_lat": 44.49987253844624, "state": "23_Maine", "county": "017_Oxford", "type": "tasmax", "mean": 292.5382262768388}]