[{"date": "2018-07-30 00:00:00", "centroid_lon": -69.1685693088215, "centroid_lat": 44.14104239320981, "state": "23_Maine", "county": "013_Knox", "type": "pr", "mean": 7.704282324993983e-06}, {"date": "2018-07-30 00:00:00", "centroid_lon": -69.54350467475419, "centroid_lat": 44.066382526077106, "state": "23_Maine", "county": "015_Lincoln", "type": "pr", "mean": 1.0142045877208667e-05}, {"date": "2018-07-30 00:00:00", "centroid_lon": -69.85456646123328, "centroid_lat": 43.95977198458046, "state": "23_Maine", "county": "023_Sagadahoc", "type": "pr", "mean": 6.657543963228818e-06}, {"date": "2018-07-30 00:00:00", "centroid_lon": -70.71437648184487, "centroid_lat": 43.47821627618549, "state": "23_Maine", "county": "031_York", "type": "pr", "mean": 4.5199985054620945e-06}, {"date": "2018-07-30 00:00:00", "centroid_lon": -70.44400817507413, "centroid_lat": 44.97403259668406, "state": "23_Maine", "county": "007_Franklin", "type": "pr", "mean": 8.701089695130255e-06}, {"date": "2018-07-30 00:00:00", "centroid_lon": -68.59890428205432, "centroid_lat": 46.658916160858595, "state": "23_Maine", "county": "003_Aroostook", "type": "pr", "mean": 1.7494721697163123e-05}, {"date": "2018-07-30 00:00:00", "centroid_lon": -69.95890400955348, "centroid_lat": 45.51390922318789, "state": "23_Maine", "county": "025_Somerset", "type": "pr", "mean": 6.114539136043666e-06}, {"date": "2018-07-30 00:00:00", "centroid_lon": -69.14540579832816, "centroid_lat": 44.502751923557284, "state": "23_Maine", "county": "027_Waldo", "type": "pr", "mean": 7.385650384267569e-06}, {"date": "2018-07-30 00:00:00", "centroid_lon": -69.76733332179862, "centroid_lat": 44.40911176793328, "state": "23_Maine", "county": "011_Kennebec", "type": "pr", "mean": 6.809041159223333e-06}, {"date": "2018-07-30 00:00:00", "centroid_lon": -68.6494587213623, "centroid_lat": 45.40063185337624, "state": "23_Maine", "county": "019_Penobscot", "type": "pr", "mean": 8.05285089409626e-06}, {"date": "2018-07-30 00:00:00", "centroid_lon": -69.2845937025007, "centroid_lat": 45.83734230475155, "state": "23_Maine", "county": "021_Piscataquis", "type": "pr", "mean": 9.31552213821709e-06}, {"date": "2018-07-30 00:00:00", "centroid_lon": -68.35859841983748, "centroid_lat": 44.66419124449295, "state": "23_Maine", "county": "009_Hancock", "type": "pr", "mean": 6.4101534787498944e-06}, {"date": "2018-07-30 00:00:00", "centroid_lon": -70.39879000829218, "centroid_lat": 43.84641178596215, "state": "23_Maine", "county": "005_Cumberland", "type": "pr", "mean": 5.2088585107412655e-06}, {"date": "2018-07-30 00:00:00", "centroid_lon": -67.62879048433543, "centroid_lat": 45.03063661353635, "state": "23_Maine", "county": "029_Washington", "type": "pr", "mean": 1.273470271761263e-05}, {"date": "2018-07-30 00:00:00", "centroid_lon": -70.2064712102794, "centroid_lat": 44.16579101934898, "state": "23_Maine", "county": "001_Androscoggin", "type": "pr", "mean": 5.69351707651679e-06}, {"date": "2018-07-30 00:00:00", "centroid_lon": -70.75660576738426, "centroid_lat": 44.49987253844624, "state": "23_Maine", "county": "017_Oxford", "type": "pr", "mean": 1.0435708862219361e-05}]