[{"date": "2018-07-09 00:00:00", "centroid_lon": -70.29149042162084, "centroid_lat": 41.724178611977166, "state": "25_Massachusetts", "county": "001_Barnstable", "type": "pr", "mean": 2.394291957552057e-05}, {"date": "2018-07-09 00:00:00", "centroid_lon": -72.63158231245845, "centroid_lat": 42.13508895524805, "state": "25_Massachusetts", "county": "013_Hampden", "type": "pr", "mean": 2.7620739274425432e-05}, {"date": "2018-07-09 00:00:00", "centroid_lon": -71.07087430373532, "centroid_lat": 42.33358904356942, "state": "25_Massachusetts", "county": "025_Suffolk", "type": "pr", "mean": 1.4327476882109685e-05}, {"date": "2018-07-09 00:00:00", "centroid_lon": -70.65008761552205, "centroid_lat": 41.39608468988456, "state": "25_Massachusetts", "county": "007_Dukes", "type": "pr", "mean": 4.261022799515298e-05}, {"date": "2018-07-09 00:00:00", "centroid_lon": -71.39179841026245, "centroid_lat": 42.485574571680274, "state": "25_Massachusetts", "county": "017_Middlesex", "type": "pr", "mean": 2.114599030594238e-05}, {"date": "2018-07-09 00:00:00", "centroid_lon": -71.11437747183895, "centroid_lat": 41.79716381217753, "state": "25_Massachusetts", "county": "005_Bristol", "type": "pr", "mean": 2.974179993283802e-05}, {"date": "2018-07-09 00:00:00", "centroid_lon": -70.95196700100874, "centroid_lat": 42.67309223273291, "state": "25_Massachusetts", "county": "009_Essex", "type": "pr", "mean": 1.2250051492758628e-05}, {"date": "2018-07-09 00:00:00", "centroid_lon": -73.20634678354459, "centroid_lat": 42.370699260324905, "state": "25_Massachusetts", "county": "003_Berkshire", "type": "pr", "mean": 1.5213165689991522e-05}, {"date": "2018-07-09 00:00:00", "centroid_lon": -72.59183801303035, "centroid_lat": 42.58309255309413, "state": "25_Massachusetts", "county": "011_Franklin", "type": "pr", "mean": 1.7451678939657858e-05}, {"date": "2018-07-09 00:00:00", "centroid_lon": -71.21110420820153, "centroid_lat": 42.16068851261101, "state": "25_Massachusetts", "county": "021_Norfolk", "type": "pr", "mean": 1.617865650803738e-05}, {"date": "2018-07-09 00:00:00", "centroid_lon": -70.81141076389231, "centroid_lat": 41.95116261597028, "state": "25_Massachusetts", "county": "023_Plymouth", "type": "pr", "mean": 1.735726195596615e-05}, {"date": "2018-07-09 00:00:00", "centroid_lon": -72.663785834447, "centroid_lat": 42.34015350159346, "state": "25_Massachusetts", "county": "015_Hampshire", "type": "pr", "mean": 2.6252881937017223e-05}, {"date": "2018-07-09 00:00:00", "centroid_lon": -71.90774264600626, "centroid_lat": 42.35142184415478, "state": "25_Massachusetts", "county": "027_Worcester", "type": "pr", "mean": 2.9436182618762056e-05}]