[{"date": "2018-06-04 00:00:00", "centroid_lon": -70.29149042162084, "centroid_lat": 41.724178611977166, "state": "25_Massachusetts", "county": "001_Barnstable", "type": "pr", "mean": 1.8029491868565812e-06}, {"date": "2018-06-04 00:00:00", "centroid_lon": -72.63158231245845, "centroid_lat": 42.13508895524805, "state": "25_Massachusetts", "county": "013_Hampden", "type": "pr", "mean": 5.8904556681227405e-06}, {"date": "2018-06-04 00:00:00", "centroid_lon": -71.07087430373532, "centroid_lat": 42.33358904356942, "state": "25_Massachusetts", "county": "025_Suffolk", "type": "pr", "mean": 3.6863812056253664e-06}, {"date": "2018-06-04 00:00:00", "centroid_lon": -70.65008761552205, "centroid_lat": 41.39608468988456, "state": "25_Massachusetts", "county": "007_Dukes", "type": "pr", "mean": 2.0810809603842373e-06}, {"date": "2018-06-04 00:00:00", "centroid_lon": -71.39179841026245, "centroid_lat": 42.485574571680274, "state": "25_Massachusetts", "county": "017_Middlesex", "type": "pr", "mean": 4.907024800010573e-06}, {"date": "2018-06-04 00:00:00", "centroid_lon": -71.11437747183895, "centroid_lat": 41.79716381217753, "state": "25_Massachusetts", "county": "005_Bristol", "type": "pr", "mean": 2.1439262647098597e-06}, {"date": "2018-06-04 00:00:00", "centroid_lon": -70.95196700100874, "centroid_lat": 42.67309223273291, "state": "25_Massachusetts", "county": "009_Essex", "type": "pr", "mean": 6.2806175264995545e-06}, {"date": "2018-06-04 00:00:00", "centroid_lon": -73.20634678354459, "centroid_lat": 42.370699260324905, "state": "25_Massachusetts", "county": "003_Berkshire", "type": "pr", "mean": 3.075083138052529e-06}, {"date": "2018-06-04 00:00:00", "centroid_lon": -72.59183801303035, "centroid_lat": 42.58309255309413, "state": "25_Massachusetts", "county": "011_Franklin", "type": "pr", "mean": 2.903335426912681e-06}, {"date": "2018-06-04 00:00:00", "centroid_lon": -71.21110420820153, "centroid_lat": 42.16068851261101, "state": "25_Massachusetts", "county": "021_Norfolk", "type": "pr", "mean": 2.4638729016823207e-06}, {"date": "2018-06-04 00:00:00", "centroid_lon": -70.81141076389231, "centroid_lat": 41.95116261597028, "state": "25_Massachusetts", "county": "023_Plymouth", "type": "pr", "mean": 1.978924325269371e-06}, {"date": "2018-06-04 00:00:00", "centroid_lon": -72.663785834447, "centroid_lat": 42.34015350159346, "state": "25_Massachusetts", "county": "015_Hampshire", "type": "pr", "mean": 5.826535276095716e-06}, {"date": "2018-06-04 00:00:00", "centroid_lon": -71.90774264600626, "centroid_lat": 42.35142184415478, "state": "25_Massachusetts", "county": "027_Worcester", "type": "pr", "mean": 5.555604712710539e-06}]