[{"date": "2019-12-17 00:00:00", "centroid_lon": -70.29149042162084, "centroid_lat": 41.724178611977166, "state": "25_Massachusetts", "county": "001_Barnstable", "type": "tasmin", "mean": 269.194100516183}, {"date": "2019-12-17 00:00:00", "centroid_lon": -72.63158231245845, "centroid_lat": 42.13508895524805, "state": "25_Massachusetts", "county": "013_Hampden", "type": "tasmin", "mean": 269.9864523751395}, {"date": "2019-12-17 00:00:00", "centroid_lon": -71.07087430373532, "centroid_lat": 42.33358904356942, "state": "25_Massachusetts", "county": "025_Suffolk", "type": "tasmin", "mean": 268.5760410853795}, {"date": "2019-12-17 00:00:00", "centroid_lon": -70.65008761552205, "centroid_lat": 41.39608468988456, "state": "25_Massachusetts", "county": "007_Dukes", "type": "tasmin", "mean": 265.88905552455356}, {"date": "2019-12-17 00:00:00", "centroid_lon": -71.39179841026245, "centroid_lat": 42.485574571680274, "state": "25_Massachusetts", "county": "017_Middlesex", "type": "tasmin", "mean": 267.1970834883433}, {"date": "2019-12-17 00:00:00", "centroid_lon": -71.11437747183895, "centroid_lat": 41.79716381217753, "state": "25_Massachusetts", "county": "005_Bristol", "type": "tasmin", "mean": 268.6162772042411}, {"date": "2019-12-17 00:00:00", "centroid_lon": -70.95196700100874, "centroid_lat": 42.67309223273291, "state": "25_Massachusetts", "county": "009_Essex", "type": "tasmin", "mean": 267.74825613839283}, {"date": "2019-12-17 00:00:00", "centroid_lon": -73.20634678354459, "centroid_lat": 42.370699260324905, "state": "25_Massachusetts", "county": "003_Berkshire", "type": "tasmin", "mean": 268.91404215494794}, {"date": "2019-12-17 00:00:00", "centroid_lon": -72.59183801303035, "centroid_lat": 42.58309255309413, "state": "25_Massachusetts", "county": "011_Franklin", "type": "tasmin", "mean": 270.88067253268497}, {"date": "2019-12-17 00:00:00", "centroid_lon": -71.21110420820153, "centroid_lat": 42.16068851261101, "state": "25_Massachusetts", "county": "021_Norfolk", "type": "tasmin", "mean": 268.24502418154765}, {"date": "2019-12-17 00:00:00", "centroid_lon": -70.81141076389231, "centroid_lat": 41.95116261597028, "state": "25_Massachusetts", "county": "023_Plymouth", "type": "tasmin", "mean": 268.952223174426}, {"date": "2019-12-17 00:00:00", "centroid_lon": -72.663785834447, "centroid_lat": 42.34015350159346, "state": "25_Massachusetts", "county": "015_Hampshire", "type": "tasmin", "mean": 269.94825671968005}, {"date": "2019-12-17 00:00:00", "centroid_lon": -71.90774264600626, "centroid_lat": 42.35142184415478, "state": "25_Massachusetts", "county": "027_Worcester", "type": "tasmin", "mean": 269.2369315011161}]