[{"date": "2019-12-03 00:00:00", "centroid_lon": -70.29149042162084, "centroid_lat": 41.724178611977166, "state": "25_Massachusetts", "county": "001_Barnstable", "type": "tasmax", "mean": 288.83637637183784}, {"date": "2019-12-03 00:00:00", "centroid_lon": -72.63158231245845, "centroid_lat": 42.13508895524805, "state": "25_Massachusetts", "county": "013_Hampden", "type": "tasmax", "mean": 292.40137372698103}, {"date": "2019-12-03 00:00:00", "centroid_lon": -71.07087430373532, "centroid_lat": 42.33358904356942, "state": "25_Massachusetts", "county": "025_Suffolk", "type": "tasmax", "mean": 288.9895455496652}, {"date": "2019-12-03 00:00:00", "centroid_lon": -70.65008761552205, "centroid_lat": 41.39608468988456, "state": "25_Massachusetts", "county": "007_Dukes", "type": "tasmax", "mean": 286.4844970703125}, {"date": "2019-12-03 00:00:00", "centroid_lon": -71.39179841026245, "centroid_lat": 42.485574571680274, "state": "25_Massachusetts", "county": "017_Middlesex", "type": "tasmax", "mean": 287.8356526692708}, {"date": "2019-12-03 00:00:00", "centroid_lon": -71.11437747183895, "centroid_lat": 41.79716381217753, "state": "25_Massachusetts", "county": "005_Bristol", "type": "tasmax", "mean": 288.6386579241071}, {"date": "2019-12-03 00:00:00", "centroid_lon": -70.95196700100874, "centroid_lat": 42.67309223273291, "state": "25_Massachusetts", "county": "009_Essex", "type": "tasmax", "mean": 288.07374790736606}, {"date": "2019-12-03 00:00:00", "centroid_lon": -73.20634678354459, "centroid_lat": 42.370699260324905, "state": "25_Massachusetts", "county": "003_Berkshire", "type": "tasmax", "mean": 291.70652843656995}, {"date": "2019-12-03 00:00:00", "centroid_lon": -72.59183801303035, "centroid_lat": 42.58309255309413, "state": "25_Massachusetts", "county": "011_Franklin", "type": "tasmax", "mean": 291.92915686782527}, {"date": "2019-12-03 00:00:00", "centroid_lon": -71.21110420820153, "centroid_lat": 42.16068851261101, "state": "25_Massachusetts", "county": "021_Norfolk", "type": "tasmax", "mean": 288.3672979445684}, {"date": "2019-12-03 00:00:00", "centroid_lon": -70.81141076389231, "centroid_lat": 41.95116261597028, "state": "25_Massachusetts", "county": "023_Plymouth", "type": "tasmax", "mean": 289.0576620296556}, {"date": "2019-12-03 00:00:00", "centroid_lon": -72.663785834447, "centroid_lat": 42.34015350159346, "state": "25_Massachusetts", "county": "015_Hampshire", "type": "tasmax", "mean": 291.77361769903274}, {"date": "2019-12-03 00:00:00", "centroid_lon": -71.90774264600626, "centroid_lat": 42.35142184415478, "state": "25_Massachusetts", "county": "027_Worcester", "type": "tasmax", "mean": 290.0179245721726}]