[{"date": "2018-03-19 00:00:00", "centroid_lon": -71.30563479998189, "centroid_lat": 44.689570261572, "state": "33_New Hampshire", "county": "007_Coos", "type": "pr", "mean": 1.9503261942840515e-05}, {"date": "2018-03-19 00:00:00", "centroid_lon": -71.12536673387804, "centroid_lat": 42.98755540207759, "state": "33_New Hampshire", "county": "015_Rockingham", "type": "pr", "mean": 3.647456024013156e-05}, {"date": "2018-03-19 00:00:00", "centroid_lon": -71.02886799741374, "centroid_lat": 43.296956999975905, "state": "33_New Hampshire", "county": "017_Strafford", "type": "pr", "mean": 3.472948737908155e-05}, {"date": "2018-03-19 00:00:00", "centroid_lon": -71.20309837460373, "centroid_lat": 43.87381081161626, "state": "33_New Hampshire", "county": "003_Carroll", "type": "pr", "mean": 2.6178238234327484e-05}, {"date": "2018-03-19 00:00:00", "centroid_lon": -71.68023961553051, "centroid_lat": 43.29746511957457, "state": "33_New Hampshire", "county": "013_Merrimack", "type": "pr", "mean": 2.87224272994088e-05}, {"date": "2018-03-19 00:00:00", "centroid_lon": -71.42266290893869, "centroid_lat": 43.51790463348557, "state": "33_New Hampshire", "county": "001_Belknap", "type": "pr", "mean": 3.319090735333572e-05}, {"date": "2018-03-19 00:00:00", "centroid_lon": -72.25118842778647, "centroid_lat": 42.91937813270929, "state": "33_New Hampshire", "county": "005_Cheshire", "type": "pr", "mean": 1.9610634106876596e-05}, {"date": "2018-03-19 00:00:00", "centroid_lon": -71.7160846564973, "centroid_lat": 42.91533315606717, "state": "33_New Hampshire", "county": "011_Hillsborough", "type": "pr", "mean": 3.066376399258341e-05}, {"date": "2018-03-19 00:00:00", "centroid_lon": -72.22217146106603, "centroid_lat": 43.361426408632404, "state": "33_New Hampshire", "county": "019_Sullivan", "type": "pr", "mean": 2.052703348454088e-05}, {"date": "2018-03-19 00:00:00", "centroid_lon": -71.82074759959038, "centroid_lat": 43.94066039232834, "state": "33_New Hampshire", "county": "009_Grafton", "type": "pr", "mean": 2.0567987893391086e-05}]