[{"date": "2018-10-29 00:00:00", "centroid_lon": -71.30563479998189, "centroid_lat": 44.689570261572, "state": "33_New Hampshire", "county": "007_Coos", "type": "tasmin", "mean": 278.77730669294084}, {"date": "2018-10-29 00:00:00", "centroid_lon": -71.12536673387804, "centroid_lat": 42.98755540207759, "state": "33_New Hampshire", "county": "015_Rockingham", "type": "tasmin", "mean": 276.26628268494903}, {"date": "2018-10-29 00:00:00", "centroid_lon": -71.02886799741374, "centroid_lat": 43.296956999975905, "state": "33_New Hampshire", "county": "017_Strafford", "type": "tasmin", "mean": 276.3689383370536}, {"date": "2018-10-29 00:00:00", "centroid_lon": -71.20309837460373, "centroid_lat": 43.87381081161626, "state": "33_New Hampshire", "county": "003_Carroll", "type": "tasmin", "mean": 277.47195870535717}, {"date": "2018-10-29 00:00:00", "centroid_lon": -71.68023961553051, "centroid_lat": 43.29746511957457, "state": "33_New Hampshire", "county": "013_Merrimack", "type": "tasmin", "mean": 278.86711387028777}, {"date": "2018-10-29 00:00:00", "centroid_lon": -71.42266290893869, "centroid_lat": 43.51790463348557, "state": "33_New Hampshire", "county": "001_Belknap", "type": "tasmin", "mean": 277.65421404157365}, {"date": "2018-10-29 00:00:00", "centroid_lon": -72.25118842778647, "centroid_lat": 42.91937813270929, "state": "33_New Hampshire", "county": "005_Cheshire", "type": "tasmin", "mean": 281.97409319196424}, {"date": "2018-10-29 00:00:00", "centroid_lon": -71.7160846564973, "centroid_lat": 42.91533315606717, "state": "33_New Hampshire", "county": "011_Hillsborough", "type": "tasmin", "mean": 278.5726343271684}, {"date": "2018-10-29 00:00:00", "centroid_lon": -72.22217146106603, "centroid_lat": 43.361426408632404, "state": "33_New Hampshire", "county": "019_Sullivan", "type": "tasmin", "mean": 281.15002092633927}, {"date": "2018-10-29 00:00:00", "centroid_lon": -71.82074759959038, "centroid_lat": 43.94066039232834, "state": "33_New Hampshire", "county": "009_Grafton", "type": "tasmin", "mean": 278.2673698874081}]