[{"date": "2018-02-05 00:00:00", "centroid_lon": -71.30563479998189, "centroid_lat": 44.689570261572, "state": "33_New Hampshire", "county": "007_Coos", "type": "pr", "mean": 1.4348588008163332e-05}, {"date": "2018-02-05 00:00:00", "centroid_lon": -71.12536673387804, "centroid_lat": 42.98755540207759, "state": "33_New Hampshire", "county": "015_Rockingham", "type": "pr", "mean": 2.9035857569768415e-05}, {"date": "2018-02-05 00:00:00", "centroid_lon": -71.02886799741374, "centroid_lat": 43.296956999975905, "state": "33_New Hampshire", "county": "017_Strafford", "type": "pr", "mean": 2.5978027094554686e-05}, {"date": "2018-02-05 00:00:00", "centroid_lon": -71.20309837460373, "centroid_lat": 43.87381081161626, "state": "33_New Hampshire", "county": "003_Carroll", "type": "pr", "mean": 1.8194373600029696e-05}, {"date": "2018-02-05 00:00:00", "centroid_lon": -71.68023961553051, "centroid_lat": 43.29746511957457, "state": "33_New Hampshire", "county": "013_Merrimack", "type": "pr", "mean": 2.050058699549279e-05}, {"date": "2018-02-05 00:00:00", "centroid_lon": -71.42266290893869, "centroid_lat": 43.51790463348557, "state": "33_New Hampshire", "county": "001_Belknap", "type": "pr", "mean": 2.308046428619751e-05}, {"date": "2018-02-05 00:00:00", "centroid_lon": -72.25118842778647, "centroid_lat": 42.91937813270929, "state": "33_New Hampshire", "county": "005_Cheshire", "type": "pr", "mean": 9.351970324392564e-06}, {"date": "2018-02-05 00:00:00", "centroid_lon": -71.7160846564973, "centroid_lat": 42.91533315606717, "state": "33_New Hampshire", "county": "011_Hillsborough", "type": "pr", "mean": 1.646338725030156e-05}, {"date": "2018-02-05 00:00:00", "centroid_lon": -72.22217146106603, "centroid_lat": 43.361426408632404, "state": "33_New Hampshire", "county": "019_Sullivan", "type": "pr", "mean": 1.1025572270487568e-05}, {"date": "2018-02-05 00:00:00", "centroid_lon": -71.82074759959038, "centroid_lat": 43.94066039232834, "state": "33_New Hampshire", "county": "009_Grafton", "type": "pr", "mean": 1.717436564166662e-05}]