[{"date": "2019-12-03 00:00:00", "centroid_lon": -71.30563479998189, "centroid_lat": 44.689570261572, "state": "33_New Hampshire", "county": "007_Coos", "type": "tasmin", "mean": 268.237302507673}, {"date": "2019-12-03 00:00:00", "centroid_lon": -71.12536673387804, "centroid_lat": 42.98755540207759, "state": "33_New Hampshire", "county": "015_Rockingham", "type": "tasmin", "mean": 266.87161690848217}, {"date": "2019-12-03 00:00:00", "centroid_lon": -71.02886799741374, "centroid_lat": 43.296956999975905, "state": "33_New Hampshire", "county": "017_Strafford", "type": "tasmin", "mean": 267.36484375}, {"date": "2019-12-03 00:00:00", "centroid_lon": -71.20309837460373, "centroid_lat": 43.87381081161626, "state": "33_New Hampshire", "county": "003_Carroll", "type": "tasmin", "mean": 267.7701154436384}, {"date": "2019-12-03 00:00:00", "centroid_lon": -71.68023961553051, "centroid_lat": 43.29746511957457, "state": "33_New Hampshire", "county": "013_Merrimack", "type": "tasmin", "mean": 269.41241939484127}, {"date": "2019-12-03 00:00:00", "centroid_lon": -71.42266290893869, "centroid_lat": 43.51790463348557, "state": "33_New Hampshire", "county": "001_Belknap", "type": "tasmin", "mean": 268.2828281947545}, {"date": "2019-12-03 00:00:00", "centroid_lon": -72.25118842778647, "centroid_lat": 42.91937813270929, "state": "33_New Hampshire", "county": "005_Cheshire", "type": "tasmin", "mean": 271.63343331473214}, {"date": "2019-12-03 00:00:00", "centroid_lon": -71.7160846564973, "centroid_lat": 42.91533315606717, "state": "33_New Hampshire", "county": "011_Hillsborough", "type": "tasmin", "mean": 268.58298539142226}, {"date": "2019-12-03 00:00:00", "centroid_lon": -72.22217146106603, "centroid_lat": 43.361426408632404, "state": "33_New Hampshire", "county": "019_Sullivan", "type": "tasmin", "mean": 270.86623883928576}, {"date": "2019-12-03 00:00:00", "centroid_lon": -71.82074759959038, "centroid_lat": 43.94066039232834, "state": "33_New Hampshire", "county": "009_Grafton", "type": "tasmin", "mean": 268.2507006220457}]