[{"date": "2019-07-09 00:00:00", "centroid_lon": -71.30563479998189, "centroid_lat": 44.689570261572, "state": "33_New Hampshire", "county": "007_Coos", "type": "tasmax", "mean": 310.6250326974051}, {"date": "2019-07-09 00:00:00", "centroid_lon": -71.12536673387804, "centroid_lat": 42.98755540207759, "state": "33_New Hampshire", "county": "015_Rockingham", "type": "tasmax", "mean": 308.3714624521684}, {"date": "2019-07-09 00:00:00", "centroid_lon": -71.02886799741374, "centroid_lat": 43.296956999975905, "state": "33_New Hampshire", "county": "017_Strafford", "type": "tasmax", "mean": 308.821826171875}, {"date": "2019-07-09 00:00:00", "centroid_lon": -71.20309837460373, "centroid_lat": 43.87381081161626, "state": "33_New Hampshire", "county": "003_Carroll", "type": "tasmax", "mean": 309.79517764136904}, {"date": "2019-07-09 00:00:00", "centroid_lon": -71.68023961553051, "centroid_lat": 43.29746511957457, "state": "33_New Hampshire", "county": "013_Merrimack", "type": "tasmax", "mean": 310.32946196056554}, {"date": "2019-07-09 00:00:00", "centroid_lon": -71.42266290893869, "centroid_lat": 43.51790463348557, "state": "33_New Hampshire", "county": "001_Belknap", "type": "tasmax", "mean": 309.3834141322545}, {"date": "2019-07-09 00:00:00", "centroid_lon": -72.25118842778647, "centroid_lat": 42.91937813270929, "state": "33_New Hampshire", "county": "005_Cheshire", "type": "tasmax", "mean": 312.82666713169647}, {"date": "2019-07-09 00:00:00", "centroid_lon": -71.7160846564973, "centroid_lat": 42.91533315606717, "state": "33_New Hampshire", "county": "011_Hillsborough", "type": "tasmax", "mean": 310.27797154017856}, {"date": "2019-07-09 00:00:00", "centroid_lon": -72.22217146106603, "centroid_lat": 43.361426408632404, "state": "33_New Hampshire", "county": "019_Sullivan", "type": "tasmax", "mean": 311.5448800223214}, {"date": "2019-07-09 00:00:00", "centroid_lon": -71.82074759959038, "centroid_lat": 43.94066039232834, "state": "33_New Hampshire", "county": "009_Grafton", "type": "tasmax", "mean": 309.50584911699053}]