[{"date": "2018-04-02 00:00:00", "centroid_lon": -72.37680635541271, "centroid_lat": 44.00565784489038, "state": "50_Vermont", "county": "017_Orange", "type": "tasmax", "mean": 293.3280353156888}, {"date": "2018-04-02 00:00:00", "centroid_lon": -72.58621402043903, "centroid_lat": 43.58000424177945, "state": "50_Vermont", "county": "027_Windsor", "type": "tasmax", "mean": 295.0316205705915}, {"date": "2018-04-02 00:00:00", "centroid_lon": -72.71379547834168, "centroid_lat": 42.9906105107739, "state": "50_Vermont", "county": "025_Windham", "type": "tasmax", "mean": 297.1349400111607}, {"date": "2018-04-02 00:00:00", "centroid_lon": -71.73623485599732, "centroid_lat": 44.72798413446471, "state": "50_Vermont", "county": "009_Essex", "type": "tasmax", "mean": 293.6644694010417}, {"date": "2018-04-02 00:00:00", "centroid_lon": -72.24375515578149, "centroid_lat": 44.828796927551835, "state": "50_Vermont", "county": "019_Orleans", "type": "tasmax", "mean": 289.93236258370536}, {"date": "2018-04-02 00:00:00", "centroid_lon": -73.09296955605637, "centroid_lat": 43.03542793839849, "state": "50_Vermont", "county": "003_Bennington", "type": "tasmax", "mean": 295.5313446667729}, {"date": "2018-04-02 00:00:00", "centroid_lon": -73.08091305868045, "centroid_lat": 44.46100167072981, "state": "50_Vermont", "county": "007_Chittenden", "type": "tasmax", "mean": 290.8142569405692}, {"date": "2018-04-02 00:00:00", "centroid_lon": -72.91200544776008, "centroid_lat": 44.8574942907691, "state": "50_Vermont", "county": "011_Franklin", "type": "tasmax", "mean": 289.4118158249628}, {"date": "2018-04-02 00:00:00", "centroid_lon": -72.64140294845757, "centroid_lat": 44.60574115034145, "state": "50_Vermont", "county": "015_Lamoille", "type": "tasmax", "mean": 286.93698556082586}, {"date": "2018-04-02 00:00:00", "centroid_lon": -72.61494552939516, "centroid_lat": 44.27344615648013, "state": "50_Vermont", "county": "023_Washington", "type": "tasmax", "mean": 291.09891930404973}, {"date": "2018-04-02 00:00:00", "centroid_lon": -73.14081598764324, "centroid_lat": 44.03090367559913, "state": "50_Vermont", "county": "001_Addison", "type": "tasmax", "mean": 292.4935062953404}, {"date": "2018-04-02 00:00:00", "centroid_lon": -73.03661801178546, "centroid_lat": 43.580075628732075, "state": "50_Vermont", "county": "021_Rutland", "type": "tasmax", "mean": 294.2768249511719}, {"date": "2018-04-02 00:00:00", "centroid_lon": -72.10221130175536, "centroid_lat": 44.46468703796527, "state": "50_Vermont", "county": "005_Caledonia", "type": "tasmax", "mean": 292.2630316286671}]