[{"date": "2019-01-15 00:00:00", "centroid_lon": -72.37680635541271, "centroid_lat": 44.00565784489038, "state": "50_Vermont", "county": "017_Orange", "type": "pr", "mean": 4.632937658726052e-07}, {"date": "2019-01-15 00:00:00", "centroid_lon": -72.58621402043903, "centroid_lat": 43.58000424177945, "state": "50_Vermont", "county": "027_Windsor", "type": "pr", "mean": 1.9655444763852105e-07}, {"date": "2019-01-15 00:00:00", "centroid_lon": -72.71379547834168, "centroid_lat": 42.9906105107739, "state": "50_Vermont", "county": "025_Windham", "type": "pr", "mean": 0.0}, {"date": "2019-01-15 00:00:00", "centroid_lon": -71.73623485599732, "centroid_lat": 44.72798413446471, "state": "50_Vermont", "county": "009_Essex", "type": "pr", "mean": 1.1686780965192156e-07}, {"date": "2019-01-15 00:00:00", "centroid_lon": -72.24375515578149, "centroid_lat": 44.828796927551835, "state": "50_Vermont", "county": "019_Orleans", "type": "pr", "mean": 3.2711233188820187e-08}, {"date": "2019-01-15 00:00:00", "centroid_lon": -73.09296955605637, "centroid_lat": 43.03542793839849, "state": "50_Vermont", "county": "003_Bennington", "type": "pr", "mean": 0.0}, {"date": "2019-01-15 00:00:00", "centroid_lon": -73.08091305868045, "centroid_lat": 44.46100167072981, "state": "50_Vermont", "county": "007_Chittenden", "type": "pr", "mean": 1.225282809563006e-06}, {"date": "2019-01-15 00:00:00", "centroid_lon": -72.91200544776008, "centroid_lat": 44.8574942907691, "state": "50_Vermont", "county": "011_Franklin", "type": "pr", "mean": 4.474159763525504e-07}, {"date": "2019-01-15 00:00:00", "centroid_lon": -72.64140294845757, "centroid_lat": 44.60574115034145, "state": "50_Vermont", "county": "015_Lamoille", "type": "pr", "mean": 9.42749376723181e-07}, {"date": "2019-01-15 00:00:00", "centroid_lon": -72.61494552939516, "centroid_lat": 44.27344615648013, "state": "50_Vermont", "county": "023_Washington", "type": "pr", "mean": 8.881799602727833e-07}, {"date": "2019-01-15 00:00:00", "centroid_lon": -73.14081598764324, "centroid_lat": 44.03090367559913, "state": "50_Vermont", "county": "001_Addison", "type": "pr", "mean": 4.887223202639948e-07}, {"date": "2019-01-15 00:00:00", "centroid_lon": -73.03661801178546, "centroid_lat": 43.580075628732075, "state": "50_Vermont", "county": "021_Rutland", "type": "pr", "mean": 1.0226406236110312e-07}, {"date": "2019-01-15 00:00:00", "centroid_lon": -72.10221130175536, "centroid_lat": 44.46468703796527, "state": "50_Vermont", "county": "005_Caledonia", "type": "pr", "mean": 2.5085973229765007e-07}]