[{"date": "2018-10-29 00:00:00", "centroid_lon": -72.37680635541271, "centroid_lat": 44.00565784489038, "state": "50_Vermont", "county": "017_Orange", "type": "tasmax", "mean": 301.7101253587372}, {"date": "2018-10-29 00:00:00", "centroid_lon": -72.58621402043903, "centroid_lat": 43.58000424177945, "state": "50_Vermont", "county": "027_Windsor", "type": "tasmax", "mean": 302.90663364955356}, {"date": "2018-10-29 00:00:00", "centroid_lon": -72.71379547834168, "centroid_lat": 42.9906105107739, "state": "50_Vermont", "county": "025_Windham", "type": "tasmax", "mean": 303.07695412149235}, {"date": "2018-10-29 00:00:00", "centroid_lon": -71.73623485599732, "centroid_lat": 44.72798413446471, "state": "50_Vermont", "county": "009_Essex", "type": "tasmax", "mean": 301.10985165550596}, {"date": "2018-10-29 00:00:00", "centroid_lon": -72.24375515578149, "centroid_lat": 44.828796927551835, "state": "50_Vermont", "county": "019_Orleans", "type": "tasmax", "mean": 298.6321079799107}, {"date": "2018-10-29 00:00:00", "centroid_lon": -73.09296955605637, "centroid_lat": 43.03542793839849, "state": "50_Vermont", "county": "003_Bennington", "type": "tasmax", "mean": 301.72349828603313}, {"date": "2018-10-29 00:00:00", "centroid_lon": -73.08091305868045, "centroid_lat": 44.46100167072981, "state": "50_Vermont", "county": "007_Chittenden", "type": "tasmax", "mean": 299.57395717075894}, {"date": "2018-10-29 00:00:00", "centroid_lon": -72.91200544776008, "centroid_lat": 44.8574942907691, "state": "50_Vermont", "county": "011_Franklin", "type": "tasmax", "mean": 298.003173828125}, {"date": "2018-10-29 00:00:00", "centroid_lon": -72.64140294845757, "centroid_lat": 44.60574115034145, "state": "50_Vermont", "county": "015_Lamoille", "type": "tasmax", "mean": 295.6567905970983}, {"date": "2018-10-29 00:00:00", "centroid_lon": -72.61494552939516, "centroid_lat": 44.27344615648013, "state": "50_Vermont", "county": "023_Washington", "type": "tasmax", "mean": 299.58179707429855}, {"date": "2018-10-29 00:00:00", "centroid_lon": -73.14081598764324, "centroid_lat": 44.03090367559913, "state": "50_Vermont", "county": "001_Addison", "type": "tasmax", "mean": 301.247798374721}, {"date": "2018-10-29 00:00:00", "centroid_lon": -73.03661801178546, "centroid_lat": 43.580075628732075, "state": "50_Vermont", "county": "021_Rutland", "type": "tasmax", "mean": 302.5605686732701}, {"date": "2018-10-29 00:00:00", "centroid_lon": -72.10221130175536, "centroid_lat": 44.46468703796527, "state": "50_Vermont", "county": "005_Caledonia", "type": "tasmax", "mean": 300.62729691485964}]