[{"date": "2018-02-19 00:00:00", "centroid_lon": -72.37680635541271, "centroid_lat": 44.00565784489038, "state": "50_Vermont", "county": "017_Orange", "type": "tasmin", "mean": 271.86368981186223}, {"date": "2018-02-19 00:00:00", "centroid_lon": -72.58621402043903, "centroid_lat": 43.58000424177945, "state": "50_Vermont", "county": "027_Windsor", "type": "tasmin", "mean": 273.07407488141746}, {"date": "2018-02-19 00:00:00", "centroid_lon": -72.71379547834168, "centroid_lat": 42.9906105107739, "state": "50_Vermont", "county": "025_Windham", "type": "tasmin", "mean": 273.460974868463}, {"date": "2018-02-19 00:00:00", "centroid_lon": -71.73623485599732, "centroid_lat": 44.72798413446471, "state": "50_Vermont", "county": "009_Essex", "type": "tasmin", "mean": 272.14149983723956}, {"date": "2018-02-19 00:00:00", "centroid_lon": -72.24375515578149, "centroid_lat": 44.828796927551835, "state": "50_Vermont", "county": "019_Orleans", "type": "tasmin", "mean": 269.01224539620534}, {"date": "2018-02-19 00:00:00", "centroid_lon": -73.09296955605637, "centroid_lat": 43.03542793839849, "state": "50_Vermont", "county": "003_Bennington", "type": "tasmin", "mean": 272.80235072544644}, {"date": "2018-02-19 00:00:00", "centroid_lon": -73.08091305868045, "centroid_lat": 44.46100167072981, "state": "50_Vermont", "county": "007_Chittenden", "type": "tasmin", "mean": 271.0062343052455}, {"date": "2018-02-19 00:00:00", "centroid_lon": -72.91200544776008, "centroid_lat": 44.8574942907691, "state": "50_Vermont", "county": "011_Franklin", "type": "tasmin", "mean": 270.5264514741444}, {"date": "2018-02-19 00:00:00", "centroid_lon": -72.64140294845757, "centroid_lat": 44.60574115034145, "state": "50_Vermont", "county": "015_Lamoille", "type": "tasmin", "mean": 266.8191135951451}, {"date": "2018-02-19 00:00:00", "centroid_lon": -72.61494552939516, "centroid_lat": 44.27344615648013, "state": "50_Vermont", "county": "023_Washington", "type": "tasmin", "mean": 270.378530074139}, {"date": "2018-02-19 00:00:00", "centroid_lon": -73.14081598764324, "centroid_lat": 44.03090367559913, "state": "50_Vermont", "county": "001_Addison", "type": "tasmin", "mean": 271.53685215541293}, {"date": "2018-02-19 00:00:00", "centroid_lon": -73.03661801178546, "centroid_lat": 43.580075628732075, "state": "50_Vermont", "county": "021_Rutland", "type": "tasmin", "mean": 272.64988490513394}, {"date": "2018-02-19 00:00:00", "centroid_lon": -72.10221130175536, "centroid_lat": 44.46468703796527, "state": "50_Vermont", "county": "005_Caledonia", "type": "tasmin", "mean": 271.08904904735334}]