[{"date": "2018-07-02 00:00:00", "centroid_lon": -72.37680635541271, "centroid_lat": 44.00565784489038, "state": "50_Vermont", "county": "017_Orange", "type": "pr", "mean": 2.6668933616970117e-05}, {"date": "2018-07-02 00:00:00", "centroid_lon": -72.58621402043903, "centroid_lat": 43.58000424177945, "state": "50_Vermont", "county": "027_Windsor", "type": "pr", "mean": 3.061666627348001e-05}, {"date": "2018-07-02 00:00:00", "centroid_lon": -72.71379547834168, "centroid_lat": 42.9906105107739, "state": "50_Vermont", "county": "025_Windham", "type": "pr", "mean": 1.8706601956498106e-05}, {"date": "2018-07-02 00:00:00", "centroid_lon": -71.73623485599732, "centroid_lat": 44.72798413446471, "state": "50_Vermont", "county": "009_Essex", "type": "pr", "mean": 1.664973543873722e-05}, {"date": "2018-07-02 00:00:00", "centroid_lon": -72.24375515578149, "centroid_lat": 44.828796927551835, "state": "50_Vermont", "county": "019_Orleans", "type": "pr", "mean": 2.4620271038397084e-05}, {"date": "2018-07-02 00:00:00", "centroid_lon": -73.09296955605637, "centroid_lat": 43.03542793839849, "state": "50_Vermont", "county": "003_Bennington", "type": "pr", "mean": 2.044442508307913e-05}, {"date": "2018-07-02 00:00:00", "centroid_lon": -73.08091305868045, "centroid_lat": 44.46100167072981, "state": "50_Vermont", "county": "007_Chittenden", "type": "pr", "mean": 1.3123150503296139e-05}, {"date": "2018-07-02 00:00:00", "centroid_lon": -72.91200544776008, "centroid_lat": 44.8574942907691, "state": "50_Vermont", "county": "011_Franklin", "type": "pr", "mean": 3.285091294119844e-05}, {"date": "2018-07-02 00:00:00", "centroid_lon": -72.64140294845757, "centroid_lat": 44.60574115034145, "state": "50_Vermont", "county": "015_Lamoille", "type": "pr", "mean": 2.9301831610999735e-05}, {"date": "2018-07-02 00:00:00", "centroid_lon": -72.61494552939516, "centroid_lat": 44.27344615648013, "state": "50_Vermont", "county": "023_Washington", "type": "pr", "mean": 1.6782326476496397e-05}, {"date": "2018-07-02 00:00:00", "centroid_lon": -73.14081598764324, "centroid_lat": 44.03090367559913, "state": "50_Vermont", "county": "001_Addison", "type": "pr", "mean": 1.7306578878820543e-05}, {"date": "2018-07-02 00:00:00", "centroid_lon": -73.03661801178546, "centroid_lat": 43.580075628732075, "state": "50_Vermont", "county": "021_Rutland", "type": "pr", "mean": 1.77471787797653e-05}, {"date": "2018-07-02 00:00:00", "centroid_lon": -72.10221130175536, "centroid_lat": 44.46468703796527, "state": "50_Vermont", "county": "005_Caledonia", "type": "pr", "mean": 1.7339709376422117e-05}]