[{"date": "2019-08-20 00:00:00", "centroid_lon": -72.37680635541271, "centroid_lat": 44.00565784489038, "state": "50_Vermont", "county": "017_Orange", "type": "pr", "mean": 4.5389968103596144e-05}, {"date": "2019-08-20 00:00:00", "centroid_lon": -72.58621402043903, "centroid_lat": 43.58000424177945, "state": "50_Vermont", "county": "027_Windsor", "type": "pr", "mean": 5.36096106640928e-05}, {"date": "2019-08-20 00:00:00", "centroid_lon": -72.71379547834168, "centroid_lat": 42.9906105107739, "state": "50_Vermont", "county": "025_Windham", "type": "pr", "mean": 5.6169460864965714e-05}, {"date": "2019-08-20 00:00:00", "centroid_lon": -71.73623485599732, "centroid_lat": 44.72798413446471, "state": "50_Vermont", "county": "009_Essex", "type": "pr", "mean": 3.694632947112301e-05}, {"date": "2019-08-20 00:00:00", "centroid_lon": -72.24375515578149, "centroid_lat": 44.828796927551835, "state": "50_Vermont", "county": "019_Orleans", "type": "pr", "mean": 8.471243781968952e-05}, {"date": "2019-08-20 00:00:00", "centroid_lon": -73.09296955605637, "centroid_lat": 43.03542793839849, "state": "50_Vermont", "county": "003_Bennington", "type": "pr", "mean": 6.588203808748904e-05}, {"date": "2019-08-20 00:00:00", "centroid_lon": -73.08091305868045, "centroid_lat": 44.46100167072981, "state": "50_Vermont", "county": "007_Chittenden", "type": "pr", "mean": 3.489367112966387e-05}, {"date": "2019-08-20 00:00:00", "centroid_lon": -72.91200544776008, "centroid_lat": 44.8574942907691, "state": "50_Vermont", "county": "011_Franklin", "type": "pr", "mean": 7.237971156081628e-05}, {"date": "2019-08-20 00:00:00", "centroid_lon": -72.64140294845757, "centroid_lat": 44.60574115034145, "state": "50_Vermont", "county": "015_Lamoille", "type": "pr", "mean": 8.964516850288158e-05}, {"date": "2019-08-20 00:00:00", "centroid_lon": -72.61494552939516, "centroid_lat": 44.27344615648013, "state": "50_Vermont", "county": "023_Washington", "type": "pr", "mean": 4.456103577430607e-05}, {"date": "2019-08-20 00:00:00", "centroid_lon": -73.14081598764324, "centroid_lat": 44.03090367559913, "state": "50_Vermont", "county": "001_Addison", "type": "pr", "mean": 4.702360404605445e-05}, {"date": "2019-08-20 00:00:00", "centroid_lon": -73.03661801178546, "centroid_lat": 43.580075628732075, "state": "50_Vermont", "county": "021_Rutland", "type": "pr", "mean": 6.123460895781006e-05}, {"date": "2019-08-20 00:00:00", "centroid_lon": -72.10221130175536, "centroid_lat": 44.46468703796527, "state": "50_Vermont", "county": "005_Caledonia", "type": "pr", "mean": 5.097048445034544e-05}]