[{"date": "2018-02-05 00:00:00", "centroid_lon": -72.37680635541271, "centroid_lat": 44.00565784489038, "state": "50_Vermont", "county": "017_Orange", "type": "tasmin", "mean": 273.4433793048469}, {"date": "2018-02-05 00:00:00", "centroid_lon": -72.58621402043903, "centroid_lat": 43.58000424177945, "state": "50_Vermont", "county": "027_Windsor", "type": "tasmin", "mean": 274.1555393763951}, {"date": "2018-02-05 00:00:00", "centroid_lon": -72.71379547834168, "centroid_lat": 42.9906105107739, "state": "50_Vermont", "county": "025_Windham", "type": "tasmin", "mean": 274.6497777822066}, {"date": "2018-02-05 00:00:00", "centroid_lon": -71.73623485599732, "centroid_lat": 44.72798413446471, "state": "50_Vermont", "county": "009_Essex", "type": "tasmin", "mean": 273.190679640997}, {"date": "2018-02-05 00:00:00", "centroid_lon": -72.24375515578149, "centroid_lat": 44.828796927551835, "state": "50_Vermont", "county": "019_Orleans", "type": "tasmin", "mean": 270.53780343191966}, {"date": "2018-02-05 00:00:00", "centroid_lon": -73.09296955605637, "centroid_lat": 43.03542793839849, "state": "50_Vermont", "county": "003_Bennington", "type": "tasmin", "mean": 273.17631686463653}, {"date": "2018-02-05 00:00:00", "centroid_lon": -73.08091305868045, "centroid_lat": 44.46100167072981, "state": "50_Vermont", "county": "007_Chittenden", "type": "tasmin", "mean": 272.22557285853793}, {"date": "2018-02-05 00:00:00", "centroid_lon": -72.91200544776008, "centroid_lat": 44.8574942907691, "state": "50_Vermont", "county": "011_Franklin", "type": "tasmin", "mean": 271.19907633463544}, {"date": "2018-02-05 00:00:00", "centroid_lon": -72.64140294845757, "centroid_lat": 44.60574115034145, "state": "50_Vermont", "county": "015_Lamoille", "type": "tasmin", "mean": 268.23018537248885}, {"date": "2018-02-05 00:00:00", "centroid_lon": -72.61494552939516, "centroid_lat": 44.27344615648013, "state": "50_Vermont", "county": "023_Washington", "type": "tasmin", "mean": 271.8783930564413}, {"date": "2018-02-05 00:00:00", "centroid_lon": -73.14081598764324, "centroid_lat": 44.03090367559913, "state": "50_Vermont", "county": "001_Addison", "type": "tasmin", "mean": 272.8860648018973}, {"date": "2018-02-05 00:00:00", "centroid_lon": -73.03661801178546, "centroid_lat": 43.580075628732075, "state": "50_Vermont", "county": "021_Rutland", "type": "tasmin", "mean": 273.50835745675226}, {"date": "2018-02-05 00:00:00", "centroid_lon": -72.10221130175536, "centroid_lat": 44.46468703796527, "state": "50_Vermont", "county": "005_Caledonia", "type": "tasmin", "mean": 272.43085339604596}]