[{"date": "2018-09-10 00:00:00", "centroid_lon": -72.37680635541271, "centroid_lat": 44.00565784489038, "state": "50_Vermont", "county": "017_Orange", "type": "pr", "mean": 8.288023717777462e-06}, {"date": "2018-09-10 00:00:00", "centroid_lon": -72.58621402043903, "centroid_lat": 43.58000424177945, "state": "50_Vermont", "county": "027_Windsor", "type": "pr", "mean": 7.131853895511345e-06}, {"date": "2018-09-10 00:00:00", "centroid_lon": -72.71379547834168, "centroid_lat": 42.9906105107739, "state": "50_Vermont", "county": "025_Windham", "type": "pr", "mean": 5.152938015549919e-06}, {"date": "2018-09-10 00:00:00", "centroid_lon": -71.73623485599732, "centroid_lat": 44.72798413446471, "state": "50_Vermont", "county": "009_Essex", "type": "pr", "mean": 5.641978922150364e-06}, {"date": "2018-09-10 00:00:00", "centroid_lon": -72.24375515578149, "centroid_lat": 44.828796927551835, "state": "50_Vermont", "county": "019_Orleans", "type": "pr", "mean": 6.7086070235486006e-06}, {"date": "2018-09-10 00:00:00", "centroid_lon": -73.09296955605637, "centroid_lat": 43.03542793839849, "state": "50_Vermont", "county": "003_Bennington", "type": "pr", "mean": 6.662905323129072e-06}, {"date": "2018-09-10 00:00:00", "centroid_lon": -73.08091305868045, "centroid_lat": 44.46100167072981, "state": "50_Vermont", "county": "007_Chittenden", "type": "pr", "mean": 1.224997296438752e-05}, {"date": "2018-09-10 00:00:00", "centroid_lon": -72.91200544776008, "centroid_lat": 44.8574942907691, "state": "50_Vermont", "county": "011_Franklin", "type": "pr", "mean": 6.603712920748096e-06}, {"date": "2018-09-10 00:00:00", "centroid_lon": -72.64140294845757, "centroid_lat": 44.60574115034145, "state": "50_Vermont", "county": "015_Lamoille", "type": "pr", "mean": 1.1913753041881137e-05}, {"date": "2018-09-10 00:00:00", "centroid_lon": -72.61494552939516, "centroid_lat": 44.27344615648013, "state": "50_Vermont", "county": "023_Washington", "type": "pr", "mean": 1.1771398225837215e-05}, {"date": "2018-09-10 00:00:00", "centroid_lon": -73.14081598764324, "centroid_lat": 44.03090367559913, "state": "50_Vermont", "county": "001_Addison", "type": "pr", "mean": 9.728064079744009e-06}, {"date": "2018-09-10 00:00:00", "centroid_lon": -73.03661801178546, "centroid_lat": 43.580075628732075, "state": "50_Vermont", "county": "021_Rutland", "type": "pr", "mean": 7.665949916762266e-06}, {"date": "2018-09-10 00:00:00", "centroid_lon": -72.10221130175536, "centroid_lat": 44.46468703796527, "state": "50_Vermont", "county": "005_Caledonia", "type": "pr", "mean": 6.686033736272925e-06}]